code_commune,department_code,name,centroid_lon,centroid_lat,address_count,postal_codes,min_lon,min_lat,max_lon,max_lat
01001,01,L'Abergement-Clémenciat,4.924535449999999,46.14693707500001,440,01400,4.90788,46.122965,4.95789,46.171981
01002,01,L'Abergement-de-Varey,5.423410843750001,46.008225915178535,224,01640,5.411061,45.996182,5.43373,46.021678
01004,01,Ambérieu-en-Bugey,5.355179549340813,45.9602555661206,5006,01500,5.327705,45.936025,5.4134,45.982141
01005,01,Ambérieux-en-Dombes,4.905675695461201,45.99668973499269,683,01330,4.887756,45.969131,4.948169,46.016496
01006,01,Ambléon,5.600996294117647,45.74919238235294,68,01300,5.598682,45.74664,5.603035,45.750949
01007,01,Ambronay,5.351293642628209,46.00677811217949,1248,01500,5.309381,45.984425,5.41071,46.037653
01008,01,Ambutrix,5.33764739179954,45.93874504555809,439,01500,5.329139,45.934448,5.343527,45.944741
01009,01,Andert-et-Condon,5.657716886597938,45.78854766494841,194,01300,5.652209,45.760676,5.666943,45.804508
01010,01,Anglefort,5.808986091900308,45.91354398598131,642,01350,5.787295,45.885168,5.823299,45.937595
01011,01,Apremont,5.660424267326733,46.208818074257444,202,01100,5.643594,46.179182,5.671538,46.228013
01012,01,Aranc,5.506863909871243,46.00065562231763,233,01110,5.482933,45.983059,5.52738,46.018738
01013,01,Arandas,5.484025362962963,45.89825974074078,135,01230,5.471862,45.892885,5.488862,45.912348
01014,01,Arbent,5.675434589208631,46.28160785035969,1390,01100,5.654907,46.268167,5.68978,46.303527
01015,01,Arboys en Bugey,5.648141206593404,45.720594386813154,455,01300,5.627419,45.692499,5.659051,45.747786
01016,01,Arbigny,4.967080019685042,46.47096747244094,254,01190,4.957476,46.464886,4.987966,46.482749
01017,01,Argis,5.4876771547277965,45.93417686532953,349,01230,5.473133,45.921425,5.498648,45.945734
01019,01,Armix,5.585983181818182,45.84927793939394,33,01510,5.584234,45.848298,5.589552,45.850518
01021,01,Ars-sur-Formans,4.821504484374997,45.994286998437495,640,01480,4.801919,45.982567,4.831969,46.007109
01022,01,Artemare,5.692637705650457,45.87304358212868,761,01510,5.678448,45.861539,5.702216,45.879043
01023,01,Asnières-sur-Saône,4.881987054545454,46.383643418181826,55,01570,4.872093,46.379807,4.885261,46.385821
01024,01,Attignat,5.167049860493087,46.28352696692713,1663,01340,5.144466,46.262827,5.215761,46.313128
01025,01,Bâgé-Dommartin,4.958560333156783,46.325835340572006,1888,01380,4.914763,46.288449,5.030578,46.367143
01026,01,Bâgé-le-Châtel,4.930359589632832,46.30887066090707,463,01380,4.923736,46.303742,4.939276,46.314101
01027,01,Balan,5.101319178160906,45.83811057586187,870,01360,5.083231,45.81911,5.12785,45.852647
01028,01,Baneins,4.902444666666673,46.11341128052802,303,01990,4.887597,46.100358,4.925786,46.126527
01029,01,Beaupont,5.262240587112172,46.41982727684971,419,01270,5.239081,46.394024,5.281242,46.458407
01030,01,Beauregard,4.752986017006801,46.00063311904757,294,01480,4.750286,45.996538,4.762343,46.005649
01031,01,Bellignat,5.6314400679079935,46.24508308105148,913,01100,5.619895,46.232151,5.641944,46.255401
01032,01,Béligneux,5.132222057017545,45.855089028947326,1140,01360,5.110742,45.845709,5.162693,45.87164
01033,01,Valserhône,5.81201074921506,46.11542408928571,5096,01200,5.757852,46.080723,5.860414,46.167014
01034,01,Belley,5.687172794879686,45.75611281307827,3242,01300,5.661638,45.727457,5.716882,45.774429
01035,01,Belleydoux,5.778859054794522,46.25309111415526,219,01130,5.758916,46.24208,5.811513,46.264052
01036,01,Valromey-sur-Séran,5.666953318681312,45.901814019979945,1001,01260,5.626221,45.868927,5.706961,45.967116
01037,01,Bénonces,5.477438570754715,45.82709342452828,212,01470,5.469432,45.819481,5.503185,45.864446
01038,01,Bény,5.285371073170733,46.31977415365852,410,01370,5.249208,46.293457,5.312672,46.346017
01040,01,Béréziat,5.04340712236287,46.36719802531645,237,01340,5.023358,46.354618,5.061185,46.379068
01041,01,Bettant,5.3613058876652016,45.94352194933926,454,01500,5.349268,45.941138,5.370109,45.948236
01042,01,Bey,4.842780567375888,46.220220141843946,141,01290,4.836203,46.211149,4.853822,46.226904
01043,01,Beynost,4.99859064175259,45.835988158762866,1940,01700,4.982994,45.819394,5.016229,45.848175
01044,01,Billiat,5.781805906336087,46.076344165289285,363,01200,5.769357,46.070995,5.807229,46.081662
01045,01,Birieux,5.041552137404581,45.956628809160314,131,01330,5.016753,45.931403,5.07506,45.969771
01046,01,Biziat,4.940225690423165,46.22210893541198,449,01290,4.911209,46.201722,4.967597,46.242589
01047,01,Blyes,5.251519970104631,45.8468117638266,669,01150,5.237308,45.835852,5.275578,45.858005
01049,01,La Boisse,5.034791460213285,45.843405584905675,1219,01120,4.991962,45.836556,5.063002,45.869795
01050,01,Boissey,4.996530209183674,46.37806798979591,196,01190,4.979948,46.353194,5.016056,46.391832
01051,01,Bolozon,5.465855472527473,46.20035720879119,91,01450,5.451735,46.17922,5.476297,46.215191
01052,01,Bouligneux,5.002865175757574,46.01786176969698,165,01330,4.951347,46.002047,5.040039,46.038383
01053,01,Bourg-en-Bresse,5.232609260869562,46.202849317437924,8556,01000,5.206745,46.178411,5.277553,46.227917
01054,01,Bourg-Saint-Christophe,5.151869798905607,45.886618730506136,731,01800,5.140626,45.879997,5.166524,45.895675
01056,01,Boyeux-Saint-Jérôme,5.457049607003881,46.03324853307392,257,01640,5.444084,46.018496,5.470141,46.046201
01057,01,Boz,4.9108903024054955,46.406532092783515,291,01190,4.890348,46.399151,4.924286,46.411848
01058,01,Brégnier-Cordon,5.6229354979079496,45.6406971129707,478,01300,5.599071,45.616927,5.636083,45.66513
01060,01,Brénod,5.60654919251337,46.06025175401065,374,01110,5.600122,46.052163,5.631686,46.07615
01061,01,Brens,5.690637943362831,45.71855476460176,565,01300,5.67643,45.696933,5.700775,45.733831
01062,01,Bressolles,5.095591380382772,45.866624397129165,418,01360,5.088244,45.853829,5.115433,45.871893
01063,01,Brion,5.551570418518518,46.172318188888866,270,01460,5.544854,46.163066,5.556981,46.178657
01064,01,Briord,5.473189792537313,45.778176768656735,670,01470,5.450738,45.753439,5.495528,45.790002
01065,01,Buellas,5.147493535802469,46.20558448271606,810,01310,5.128322,46.191786,5.162363,46.226609
01066,01,La Burbanche,5.547763425,45.85774117500002,120,01510,5.532836,45.842185,5.572008,45.869094
01067,01,Ceignes,5.4966577142857185,46.1216833154762,168,01430,5.484753,46.111207,5.50146,46.130345
01068,01,Cerdon,5.464062194756552,46.07824866292137,534,01450,5.445663,46.05887,5.49807,46.084222
01069,01,Certines,5.266769922570015,46.144258243822094,607,01240,5.254456,46.115413,5.289058,46.156124
01071,01,Cessy,6.074424292421198,46.319504197183115,1491,01170,6.056644,46.300766,6.102165,46.330633
01072,01,Ceyzériat,5.32139216129032,46.180802480000004,1550,01250,5.301499,46.169835,5.338524,46.195822
01073,01,Ceyzérieu,5.719626226244345,45.83272531221717,663,01350,5.690443,45.817967,5.745163,45.844392
01074,01,Chalamont,5.170821250936331,45.997637205992504,1068,01320,5.130696,45.979057,5.215358,46.051568
01075,01,Chaleins,4.803731199115044,46.03251876401181,678,01480,4.772202,46.017886,4.828117,46.058066
01076,01,Chaley,5.534513412587415,45.95568852447555,143,01230,5.52967,45.951441,5.55546,45.960611
01077,01,Challes-la-Montagne,5.45824276296296,46.122517051851844,135,01450,5.445662,46.114067,5.46641,46.128096
01078,01,Challex,5.974909024707417,46.180321413524,769,01630,5.959973,46.162488,5.9913,46.190315
01079,01,Champagne-en-Valromey,5.684413481735162,45.91681515981735,438,01260,5.667231,45.90124,5.709007,45.955595
01080,01,Champdor-Corcelles,5.586365093596059,46.025183022167525,406,01110,5.555393,46.011899,5.613404,46.057515
01081,01,Champfromier,5.814590941489362,46.19550488031915,376,01410,5.795611,46.188903,5.8308,46.207509
01082,01,Chanay,5.784868326732673,46.00529585478547,303,01420,5.764848,45.997543,5.80462,46.020705
01083,01,Chaneins,4.852348733205377,46.09611972360841,521,01990,4.825977,46.082967,4.876782,46.107776
01084,01,Chanoz-Châtenay,5.031170799076208,46.18481163510393,433,01400,5.002432,46.165439,5.059268,46.208235
01085,01,La Chapelle-du-Châtelard,5.024254114130436,46.0709895326087,184,01240,4.992798,46.032556,5.039101,46.10321
01087,01,Charix,5.682330494505497,46.1859792087912,182,01130,5.66992,46.168831,5.695589,46.220859
01088,01,Charnoz-sur-Ain,5.221088894736842,45.87156806052633,380,01800,5.216596,45.863765,5.226673,45.891245
01089,01,Château-Gaillard,5.310769017467252,45.96762328209613,1145,01500,5.286451,45.95163,5.329902,45.986716
01090,01,Châtenay,5.206510055248618,46.02940103867404,181,01320,5.182272,46.002896,5.234511,46.050861
01092,01,Châtillon-la-Palud,5.253156945157536,45.97305378763133,857,01320,5.216334,45.96151,5.266575,45.985255
01093,01,Châtillon-sur-Chalaronne,4.957511915263445,46.11925609940241,1841,01400,4.928606,46.101094,4.983702,46.154245
01094,01,Chavannes-sur-Reyssouze,5.00383402195122,46.43642854390245,410,01190,4.979017,46.416901,5.030287,46.462811
01095,01,Nivigne et Suran,5.429043144230778,46.277020598076945,520,01250,5.391136,46.251824,5.465927,46.312851
01096,01,Chaveyriat,5.055788588441336,46.20110805779336,571,01660,5.020315,46.175264,5.090472,46.218802
01098,01,Chazey-Bons,5.680332134036149,45.79727539909639,664,"01300,01510",5.638305,45.77129,5.703984,45.824202
01099,01,Chazey-sur-Ain,5.261068704834603,45.89400657888044,786,01150,5.238732,45.864463,5.278295,45.927399
01100,01,Cheignieu-la-Balme,5.609029132743362,45.82644046017697,113,01510,5.605002,45.822827,5.630673,45.828071
01101,01,Chevillard,5.57992793137255,46.11073149999999,102,01430,5.565856,46.107382,5.586357,46.12375
01102,01,Chevroux,4.954995823529413,46.38343150101417,493,01190,4.937944,46.356897,4.985811,46.40647
01103,01,Chevry,6.042906632558139,46.28340573178291,645,01170,6.029567,46.277591,6.065322,46.297723
01104,01,Chézery-Forens,5.8707682750000005,46.218193089583366,480,"01200,01410",5.81887,46.165731,5.91115,46.255878
01105,01,Civrieux,4.8833251304878065,45.92114707804878,820,01390,4.849095,45.898101,4.910832,45.937026
01106,01,Cize,5.447527578947368,46.20489834868422,152,01250,5.443306,46.202738,5.462729,46.209413
01107,01,Cleyzieu,5.431302238805974,45.90623502238803,134,01230,5.427085,45.898983,5.437098,45.90877
01108,01,Coligny,5.342894931914892,46.38471920283692,705,01270,5.294155,46.374315,5.367651,46.402409
01109,01,Collonges,5.904842299334813,46.141479506651876,902,01550,5.899682,46.12277,5.924379,46.156966
01110,01,Colomieu,5.622026414893616,45.73320113829786,94,01300,5.618664,45.730501,5.626234,45.735759
01111,01,Conand,5.477013718954248,45.88728139215687,153,01230,5.453796,45.875306,5.500253,45.908507
01112,01,Condamine,5.551186560386477,46.1081686231884,207,01430,5.54783,46.103993,5.554789,46.114597
01113,01,Condeissiat,5.080813476454289,46.15549271468145,361,01400,5.054851,46.128481,5.113143,46.181395
01114,01,Confort,5.8230462305555575,46.15059148611108,360,01200,5.815339,46.143659,5.84438,46.165268
01115,01,Confrançon,5.059937008960571,46.26272322401428,558,01310,5.029812,46.252419,5.098049,46.282994
01116,01,Contrevoz,5.627482502976186,45.80367811309524,336,01300,5.594964,45.788523,5.645773,45.816357
01117,01,Conzieu,5.603605720930234,45.73133609302326,86,01300,5.597349,45.724924,5.611821,45.738795
01118,01,Corbonod,5.812858107142857,45.96428144047623,756,01420,5.788921,45.937568,5.831925,45.994373
01121,01,Corlier,5.4994380769230755,46.030474138461535,65,01110,5.497224,46.028189,5.503132,46.031662
01123,01,Cormoranche-sur-Saône,4.8342651968254,46.239277085714306,630,01290,4.813639,46.22676,4.848105,46.251611
01124,01,Cormoz,5.228193325415675,46.44330441092638,421,01560,5.195445,46.413976,5.242584,46.467453
01125,01,Corveissiat,5.476185219461698,46.25001465217391,483,01250,5.44541,46.211235,5.509021,46.282929
01127,01,Courmangoux,5.3715677395833366,46.33321334027778,288,01370,5.325131,46.310587,5.388007,46.341147
01128,01,Courtes,5.104635728915663,46.460903518072314,166,01560,5.084788,46.446502,5.13666,46.471808
01129,01,Crans,5.1924398636363644,45.962452666666685,132,01320,5.171631,45.95203,5.221436,45.979987
01130,01,Bresse Vallons,5.176684730636828,46.31939007401038,1162,01340,5.137099,46.299126,5.219095,46.356771
01133,01,Cressin-Rochefort,5.764236559322033,45.783210207627086,236,01350,5.758918,45.775049,5.773017,45.789217
01134,01,Crottet,4.889445541614907,46.27690261118007,805,"01290,01750",4.838453,46.266918,4.91711,46.303279
01135,01,Crozet,6.015217553808948,46.279398683192305,827,01170,5.995617,46.261994,6.031092,46.296909
01136,01,Cruzilles-lès-Mépillat,4.877241031779669,46.22305965254234,472,01290,4.862317,46.20628,4.896792,46.242419
01138,01,Culoz-Béon,5.778055795676416,45.85066716945613,1434,01350,5.742975,45.831851,5.803999,45.868541
01139,01,Curciat-Dongalon,5.160727566666664,46.48182812727274,330,01560,5.124587,46.460473,5.204012,46.506743
01140,01,Curtafond,5.092899782051284,46.27114562307695,390,01310,5.077776,46.251928,5.132159,46.294391
01141,01,Cuzieu,5.674421911764706,45.820095504201674,238,01300,5.665359,45.808457,5.688447,45.832526
01142,01,Dagneux,5.06955259263521,45.852613537399364,1738,01120,5.054764,45.836041,5.088725,45.861333
01143,01,Divonne-les-Bains,6.137689916548804,46.35932939933998,2121,01220,6.105744,46.339483,6.163086,46.385871
01145,01,Dompierre-sur-Veyle,5.209277219286655,46.070000783355354,757,01240,5.177778,46.039528,5.240783,46.091451
01146,01,Dompierre-sur-Chalaronne,4.901044431451616,46.14105577419356,248,01400,4.890513,46.127759,4.910968,46.149782
01147,01,Domsure,5.292432950581394,46.4232421976744,344,01270,5.271661,46.393722,5.31885,46.44774
01148,01,Dortan,5.6512497097560965,46.316092702439015,820,01590,5.622091,46.296059,5.678022,46.343369
01149,01,Douvres,5.372679366396759,45.98906914777327,494,01500,5.366502,45.982923,5.380011,45.993861
01150,01,Drom,5.368236681818178,46.217999064935064,154,01250,5.363704,46.215052,5.374445,46.22688
01151,01,Druillat,5.304956735294123,46.06784678947366,646,01160,5.265259,46.044877,5.334283,46.086996
01152,01,Échallon,5.736435849315066,46.21898403652967,438,01130,5.721677,46.195626,5.759162,46.240718
01153,01,Échenevex,6.0394662849404135,46.309478439870006,923,01170,6.026072,46.291687,6.064644,46.320425
01155,01,Évosges,5.500092623931622,45.96093807692307,117,01230,5.495544,45.959079,5.503321,45.963621
01156,01,Faramans,5.1266049587378655,45.90585921116505,412,01800,5.113476,45.896824,5.147229,45.927289
01157,01,Fareins,4.761057294705289,46.021303841158904,1001,01480,4.746005,46.003607,4.78363,46.042773
01158,01,Farges,5.907092039473686,46.16649048496239,532,01550,5.886009,46.155701,5.937625,46.175608
01159,01,Feillens,4.892945404860702,46.33483138944875,1687,01570,4.876372,46.321042,4.915548,46.34879
01160,01,Ferney-Voltaire,6.109116250221051,46.25521514942522,1131,01210,6.093266,46.244705,6.12336,46.265585
01162,01,Flaxieu,5.735389627906977,45.809103000000015,43,01350,5.733328,45.807322,5.737649,45.812517
01163,01,Foissiat,5.177166272906397,46.373014229556716,1015,01340,5.137359,46.345248,5.232246,46.41407
01165,01,Francheleins,4.796749864000004,46.0760531808,625,01090,4.768875,46.062154,4.850002,46.085094
01166,01,Frans,4.776021518668011,45.99049948133197,991,01480,4.765209,45.976936,4.797687,46.007402
01167,01,Garnerans,4.838589540389975,46.209264448467955,359,01140,4.824841,46.196764,4.855658,46.222346
01169,01,Genouilleux,4.7883279042553175,46.120308553191464,282,01090,4.776449,46.114855,4.802805,46.127857
01170,01,Béard-Géovreissiat,5.548219542338705,46.189187592741916,496,01460,5.540708,46.177516,5.558635,46.199219
01171,01,Géovreisset,5.621236365781714,46.25725801474926,339,01100,5.613108,46.248382,5.636032,46.263875
01173,01,Gex,6.061166827956995,46.333559534788094,3162,01170,6.016661,46.318086,6.09368,46.386808
01174,01,Giron,5.774826999999999,46.22541769942198,173,01130,5.771199,46.204855,5.780447,46.233334
01175,01,Gorrevod,4.944703450248758,46.41769540298512,402,01190,4.925363,46.408572,4.970968,46.428346
01177,01,Grand-Corent,5.434313031496063,46.20533199212595,127,01250,5.428721,46.198293,5.446035,46.220127
01179,01,Grièges,4.850876484269661,46.255078475280925,890,01290,4.833963,46.23846,4.867029,46.296056
01180,01,Grilly,6.1099139202898565,46.33078692512074,414,01220,6.092948,46.316128,6.126025,46.337981
01181,01,Groissiat,5.616642963675217,46.22631568803419,468,01100,5.605174,46.21881,5.628191,46.235387
01183,01,Guéreins,4.77716006878981,46.1052288522293,785,01090,4.764049,46.094874,4.789422,46.112063
01184,01,Hautecourt-Romanèche,5.427176189380525,46.16216709380534,565,01250,5.405856,46.124304,5.461519,46.188091
01185,01,Plateau d'Hauteville,5.594110261860479,45.958403723255834,2150,01110,5.530739,45.869024,5.631718,45.997852
01187,01,Haut Valromey,5.68442889848309,46.015994136522764,857,01260,5.629804,45.967213,5.742629,46.124677
01188,01,Illiat,4.88569525174825,46.187295055944055,286,01140,4.855161,46.164108,4.93314,46.198345
01189,01,Injoux-Génissiat,5.784505297653954,46.05364562609967,682,01200,5.755256,46.03375,5.811566,46.069087
01190,01,Innimond,5.57274350515464,45.783077639175254,97,01680,5.553436,45.771227,5.592619,45.81119
01191,01,Izenave,5.52462908490566,46.03932706603772,106,01430,5.518882,46.034483,5.528765,46.053925
01192,01,Izernore,5.553766212362911,46.21494466001984,1003,01580,5.526956,46.193503,5.580496,46.236396
01193,01,Izieu,5.639419514084508,45.649542661971836,142,01300,5.63196,45.640652,5.6456,45.656256
01194,01,Jassans-Riottier,4.7612823637327635,45.982641795864325,1886,01480,4.751368,45.95784,4.771038,45.995674
01195,01,Jasseron,5.322391718398002,46.21301219524409,799,01250,5.28235,46.199772,5.348369,46.235853
01196,01,Jayat,5.117564316725973,46.36559551957295,562,01340,5.087974,46.342257,5.138184,46.393778
01197,01,Journans,5.331068311004783,46.14560416267943,209,01250,5.326308,46.143598,5.335075,46.150961
01198,01,Joyeux,5.100108194630872,45.9523894899329,149,01800,5.067306,45.925212,5.126793,45.966918
01199,01,Jujurieux,5.412241314878888,46.042700654844246,1156,01640,5.380683,46.025748,5.442694,46.065357
01200,01,Labalme,5.483325100000001,46.09293741538464,130,01450,5.479712,46.090016,5.505172,46.097369
01202,01,Lagnieu,5.341443523927682,45.898614700106414,2821,01150,5.302104,45.856132,5.358993,45.917531
01203,01,Laiz,4.89195095543672,46.249016638146166,561,01290,4.87258,46.233212,4.928686,46.258147
01204,01,Le Poizat-Lalleyriat,5.693845326996197,46.14806283079842,526,01130,5.651563,46.128713,5.738117,46.169204
01206,01,Lantenay,5.540728618784531,46.05794939779005,181,01430,5.529991,46.055003,5.547035,46.062526
01207,01,Lapeyrouse,4.9755975981308405,45.98266127102803,107,01330,4.971566,45.980014,4.987725,45.986939
01208,01,Lavours,5.771653675496687,45.81004843046358,151,01350,5.76585,45.806173,5.782788,45.817116
01209,01,Léaz,5.875801964419476,46.098436496254656,534,01200,5.860121,46.088741,5.893491,46.121346
01210,01,Lélex,5.936944324324325,46.29988047027025,185,01410,5.920893,46.281119,5.946533,46.308261
01211,01,Lent,5.194378148459383,46.11823890336136,714,01240,5.16459,46.084098,5.219058,46.146281
01212,01,Lescheroux,5.149045304347825,46.40838482352943,391,01560,5.121409,46.388173,5.187478,46.435301
01213,01,Leyment,5.293383903381637,45.92606192914651,621,01150,5.26698,45.918144,5.30935,45.943675
01214,01,Leyssard,5.4755592706766905,46.160971443609014,133,01450,5.466995,46.141309,5.483936,46.180464
01215,01,Surjoux-Lhopital,5.795977017391307,46.024586956521745,115,01420,5.775741,46.018194,5.810027,46.039029
01216,01,Lhuis,5.539144471854305,45.741702596026464,604,01680,5.516408,45.722442,5.564948,45.761295
01219,01,Lompnas,5.519810355555558,45.802926733333344,135,01680,5.509661,45.798402,5.525608,45.808564
01224,01,Loyettes,5.2089798589918255,45.77973068801099,1468,01360,5.196867,45.770272,5.243316,45.817522
01225,01,Lurcy,4.780869519337015,46.063373077348075,181,01090,4.770606,46.058221,4.789307,46.071495
01227,01,Magnieu,5.720745331914893,45.777990410638274,470,01300,5.704246,45.764487,5.741118,45.7928
01228,01,Maillat,5.539282047945205,46.12618027739727,292,01430,5.525983,46.10706,5.554218,46.141281
01229,01,Malafretaz,5.141960833667338,46.32664741683366,499,01340,5.124201,46.307191,5.162996,46.341236
01230,01,Mantenay-Montlin,5.105433889952152,46.42923315789475,209,01560,5.084998,46.41632,5.125386,46.449575
01231,01,Manziat,4.907275695906427,46.36001585769987,1026,01570,4.889047,46.348765,4.921768,46.370133
01232,01,Marboz,5.249898849656353,46.33965947938143,1164,01851,5.216118,46.292239,5.27634,46.390132
01233,01,Marchamp,5.5449568761061965,45.77915012389383,113,01680,5.532802,45.771948,5.549576,45.787777
01234,01,Marignieu,5.719260944881888,45.79766718897638,127,01300,5.709981,45.792297,5.725468,45.813809
01235,01,Marlieux,5.069859621978021,46.06205165274724,455,01240,5.038304,46.03762,5.110128,46.074476
01236,01,Marsonnas,5.071408684848482,46.3391449636364,495,01340,5.032196,46.322981,5.102113,46.357132
01237,01,Martignat,5.609265719321149,46.20943850783289,766,01100,5.597057,46.20065,5.626264,46.219494
01238,01,Massieux,4.825336665399239,45.908823091254746,1052,01600,4.80802,45.899759,4.848573,45.920383
01239,01,Massignieu-de-Rives,5.767359622549023,45.75699572303921,408,01300,5.742277,45.743621,5.782503,45.77142
01240,01,Matafelon-Granges,5.535675157407405,46.25463449537041,432,01580,5.479586,46.22146,5.587504,46.291112
01241,01,Meillonnas,5.345466595598353,46.24602651856943,727,01370,5.315751,46.227855,5.358496,46.265744
01242,01,Mérignat,5.437145676470589,46.069504725490184,102,01450,5.435839,46.067468,5.439441,46.070407
01243,01,Messimy-sur-Saône,4.759860367187496,46.04676613281254,640,01480,4.740856,46.034844,4.778801,46.059109
01244,01,Meximieux,5.196146222848549,45.90938058624565,2661,01800,5.180156,45.88662,5.21644,45.92334
01245,01,Bohas-Meyriat-Rignat,5.380926910891087,46.14505018613858,505,01250,5.350923,46.128667,5.401197,46.169433
01246,01,Mézériat,5.046199956043953,46.24073427747251,1092,01660,5.005992,46.2199,5.091779,46.263049
01247,01,Mijoux,5.986292956164387,46.34922833150686,365,"01170,01410",5.944247,46.308143,6.064891,46.404855
01248,01,Mionnay,4.929162196428576,45.89707210989009,728,01390,4.900342,45.878851,4.967188,45.912639
01249,01,Miribel,4.94979372369546,45.832348651839126,2338,01700,4.906898,45.816971,4.972896,45.876235
01250,01,Misérieux,4.8106551343472725,45.97434097845373,789,01600,4.79634,45.947878,4.825612,45.993246
01252,01,Mogneneins,4.815689437037038,46.14497117777777,405,01140,4.797993,46.135193,4.827904,46.159247
01254,01,Montagnat,5.280689709760272,46.16848186472597,1168,01250,5.254522,46.154036,5.308853,46.193563
01255,01,Montagnieu,5.462714146341465,45.79422464939025,328,01470,5.455708,45.788055,5.474891,45.801669
01257,01,Montanges,5.797229074235805,46.16559920087335,229,01200,5.765174,46.150143,5.808195,46.190626
01258,01,Montceaux,4.789344151873768,46.0934501518738,507,01090,4.768474,46.084824,4.826614,46.103928
01259,01,Montcet,5.111049910034603,46.214042103806236,289,01310,5.101693,46.204902,5.124574,46.233343
01260,01,Le Montellier,5.071356496503496,45.93173431468531,143,01800,5.052772,45.90997,5.096244,45.95137
01261,01,Monthieux,4.942560544715451,45.956338872628685,369,01390,4.926517,45.948944,4.965615,45.975188
01262,01,Montluel,5.0487937747653735,45.86266796141818,1918,01120,4.974166,45.840366,5.062121,45.931478
01263,01,Montmerle-sur-Saône,4.761802453786524,46.084366828861064,1677,01090,4.753146,46.070871,4.771115,46.099423
01264,01,Montracol,5.120954228571425,46.19282192967033,455,01310,5.092925,46.163842,5.155795,46.206986
01265,01,Montréal-la-Cluse,5.576192827295707,46.18004184077505,1187,01460,5.561302,46.169266,5.586456,46.193505
01266,01,Montrevel-en-Bresse,5.120945994137359,46.33342559128975,1194,01340,5.090321,46.304152,5.131947,46.346201
01267,01,Nurieux-Volognat,5.519112735682821,46.1842837444934,454,01460,5.491922,46.166594,5.533374,46.217182
01268,01,Murs-et-Gélignieux,5.657311982142856,45.6405554404762,168,01300,5.638823,45.631595,5.682459,45.645688
01269,01,Nantua,5.606399985714291,46.1519873186813,910,"01130,01460",5.572051,46.13907,5.626684,46.170115
01272,01,Neuville-les-Dames,5.006998461325966,46.16113040745855,724,01400,4.969663,46.137268,5.054549,46.184022
01273,01,Neuville-sur-Ain,5.373757078260867,46.0800795728261,920,01160,5.339343,46.059511,5.400672,46.116306
01274,01,Les Neyrolles,5.633146494545454,46.141449538181845,275,01130,5.626698,46.112152,5.652362,46.155801
01275,01,Neyron,4.929228600933487,45.81764888681439,857,01700,4.918091,45.8076,4.942149,45.828391
01276,01,Niévroz,5.061902064908723,45.82480708722105,493,01120,5.032269,45.812871,5.088257,45.837536
01277,01,Nivollet-Montgriffon,5.457948454545453,45.99742088429752,121,01230,5.441951,45.990564,5.477286,46.00508
01279,01,Oncieu,5.473433485714286,45.96026862857142,70,01230,5.471808,45.95741,5.475432,45.978348
01280,01,Ordonnaz,5.537736143835614,45.83557451369862,146,01510,5.528445,45.831979,5.542332,45.840926
01281,01,Ornex,6.091620893320972,46.276746466604834,1078,01210,6.077018,46.262216,6.114604,46.290387
01282,01,Outriaz,5.547380039215689,46.06705705228758,153,01430,5.539446,46.060234,5.559673,46.072245
01283,01,Oyonnax,5.6500422871452525,46.260107399999995,5990,01100,5.603597,46.235892,5.675015,46.298046
01284,01,Ozan,4.91796781492537,46.390172916417896,335,01190,4.907774,46.378012,4.939948,46.398709
01285,01,Parcieux,4.822801733695658,45.917211798913016,552,01600,4.809397,45.910905,4.84373,45.922332
01286,01,Parves et Nattages,5.749136839863707,45.732318139693355,587,01300,5.730823,45.707979,5.768393,45.747942
01288,01,Péron,5.923419216312059,46.18923749202129,1128,01630,5.892458,46.169767,5.954753,46.211312
01289,01,Péronnas,5.209981305795849,46.18203148486159,2312,01960,5.177576,46.153911,5.238993,46.192759
01290,01,Pérouges,5.173588704918032,45.900088867213086,610,01800,5.162602,45.854779,5.187544,45.913157
01291,01,Perrex,4.9757083008658,46.24427981168834,462,01540,4.949756,46.234023,5.006495,46.257428
01293,01,Peyriat,5.512897606741573,46.152257764044926,89,01430,5.50809,46.147645,5.518023,46.155541
01294,01,Peyrieu,5.68090482405345,45.68305407795096,449,01300,5.666093,45.658749,5.701692,45.697543
01295,01,Peyzieux-sur-Saône,4.815440303846152,46.12598276923077,260,01140,4.797909,46.112857,4.849275,46.138151
01296,01,Pirajoux,5.283344639215676,46.38032116470585,255,01270,5.2411,46.361757,5.308097,46.40754
01297,01,Pizay,5.09071555641026,45.88852136923075,390,01120,5.069781,45.864632,5.102611,45.89671
01298,01,Plagne,5.724216879120878,46.189668835164824,91,01130,5.711386,46.178106,5.729914,46.19404
01299,01,Le Plantay,5.088854391705066,46.021146562211975,217,01330,5.05888,45.997025,5.123086,46.046713
01301,01,Polliat,5.131318097577848,46.24813784013846,1445,01310,5.095655,46.228397,5.170762,46.27338
01302,01,Pollieu,5.745498743589744,45.79566473504274,117,01350,5.739719,45.786246,5.751741,45.801263
01303,01,Poncin,5.414489362985679,46.086718529652295,978,01450,5.386296,46.062417,5.435141,46.112771
01304,01,Pont-d'Ain,5.3440543828861475,46.05258945250183,1379,01160,5.324903,46.036524,5.369344,46.074678
01305,01,Pont-de-Vaux,4.941855728144995,46.4325990245203,938,01190,4.898657,46.423425,4.958263,46.446864
01306,01,Pont-de-Veyle,4.88624946037736,46.261466486792436,530,01290,4.874691,46.25815,4.891968,46.266672
01307,01,Port,5.568795331250003,46.164193134375026,320,01460,5.563338,46.158907,5.576177,46.167934
01308,01,Pougny,5.9554788385093165,46.142030850931626,483,01550,5.941955,46.133203,5.9697,46.159577
01309,01,Pouillat,5.430075054545454,46.324437636363605,55,01250,5.423937,46.31163,5.432788,46.332558
01310,01,Prémeyzel,5.648679000000002,45.684091355263135,76,01300,5.646344,45.681692,5.655016,45.693598
01311,01,Prémillieu,5.566987146341464,45.873959756097555,82,01110,5.544404,45.872014,5.573106,45.875275
01313,01,Prévessin-Moëns,6.081991125877211,46.25903482982455,2280,01280,6.055664,46.246688,6.099187,46.28336
01314,01,Priay,5.291084420349437,46.01136994244605,973,01160,5.269378,45.99587,5.30411,46.047842
01317,01,Ramasse,5.361012150943397,46.192677446540884,159,01250,5.35343,46.188601,5.368925,46.19635
01318,01,Rancé,4.866967953795379,45.968307003300296,303,01390,4.843095,45.955795,4.899688,45.982757
01319,01,Relevant,4.945852400862071,46.088537905172416,232,01990,4.920104,46.050636,4.961396,46.107981
01320,01,Replonges,4.878980083245532,46.30510605426774,1898,01750,4.842513,46.289305,4.913188,46.321176
01321,01,Revonnas,5.331975805676855,46.163303997816556,458,01250,5.308442,46.155003,5.348231,46.16965
01322,01,Reyrieux,4.816551769230767,45.93354055613297,1924,01600,4.790626,45.921762,4.831619,45.947884
01323,01,Reyssouze,4.922519218415415,46.43062214132762,467,01190,4.910455,46.418443,4.937085,46.440996
01325,01,Rignieux-le-Franc,5.186179186594204,45.943422744565176,552,01800,5.132716,45.934629,5.202572,45.978189
01328,01,Romans,5.0162706862745114,46.120813858823524,255,01400,4.973921,46.106078,5.06884,46.139813
01329,01,Rossillon,5.596067159090908,45.83370484090909,132,01510,5.570113,45.827227,5.609853,45.844988
01331,01,Saint-Alban,5.447641952380951,46.09389179365078,126,01450,5.434925,46.080717,5.47265,46.106829
01332,01,Saint-André-de-Bâgé,4.915264647727273,46.29622618181814,352,01380,4.907931,46.286133,4.925286,46.303862
01333,01,Saint-André-de-Corcy,4.954259114516133,45.92808379354835,1240,01390,4.918645,45.912028,4.992231,45.947503
01334,01,Saint-André-d'Huiriat,4.910708103244838,46.21371251917409,339,01290,4.892093,46.198358,4.939436,46.234499
01335,01,Saint-André-le-Bouchoux,5.076782417142856,46.11624321142857,175,01240,5.058885,46.100723,5.10018,46.127372
01336,01,Saint-André-sur-Vieux-Jonc,5.147223697986575,46.155761981543606,596,01960,5.107371,46.124277,5.182646,46.179996
01337,01,Saint-Bénigne,4.958167802612473,46.44587917126275,689,01190,4.939934,46.427148,4.987529,46.46134
01338,01,Groslée-Saint-Benoit,5.57751006639567,45.69788088346882,738,01300,5.547007,45.665338,5.613518,45.728086
01339,01,Saint-Bernard,4.738438883116875,45.94748070995666,693,01600,4.730471,45.939146,4.753822,45.959414
01342,01,Sainte-Croix,5.051249471311473,45.89455243442626,244,01120,5.021751,45.88367,5.073788,45.910147
01343,01,Saint-Cyr-sur-Menthon,4.964784814659688,46.27366505130887,955,01380,4.936637,46.25338,4.993294,46.295257
01344,01,Saint-Denis-lès-Bourg,5.197675011339781,46.20272036875264,2381,01000,5.156044,46.187783,5.211645,46.228142
01345,01,Saint-Denis-en-Bugey,5.327297908992416,45.94948617984829,923,01500,5.320515,45.943172,5.333759,45.955708
01346,01,Saint-Didier-d'Aussiat,5.061374813432835,46.30664318656716,402,01340,5.015938,46.289045,5.097486,46.327418
01347,01,Saint-Didier-de-Formans,4.781879303921571,45.95470487363835,918,01600,4.753512,45.944107,4.799254,45.970518
01348,01,Saint-Didier-sur-Chalaronne,4.818663295069328,46.180575225732014,1298,01140,4.781486,46.160382,4.849232,46.206249
01349,01,Saint-Éloi,5.159833996108954,45.92530168093389,257,01800,5.120563,45.913822,5.172144,45.948944
01350,01,Saint-Étienne-du-Bois,5.2916157371179,46.28166663231447,1145,01370,5.248145,46.23853,5.316997,46.309703
01351,01,Saint-Étienne-sur-Chalaronne,4.869355386243389,46.14625932451499,567,01140,4.841699,46.12777,4.891368,46.169568
01352,01,Saint-Étienne-sur-Reyssouze,5.003101534810125,46.40700981329115,316,01190,4.976756,46.382051,5.027657,46.419118
01353,01,Sainte-Euphémie,4.797471080123269,45.965494853620996,649,01600,4.7836,45.947598,4.808541,45.98342
01354,01,Saint-Genis-Pouilly,6.030010226277373,46.25219823722621,2466,01630,6.013518,46.233678,6.05014,46.279586
01355,01,Saint-Genis-sur-Menthon,5.010920148148154,46.281131174074076,270,01380,4.994481,46.261429,5.034318,46.301739
01356,01,Saint-Georges-sur-Renon,5.030849981132076,46.10521552830187,106,01400,5.003102,46.095734,5.045719,46.11257
01357,01,Saint-Germain-de-Joux,5.737775486111112,46.17871411111114,288,01130,5.715801,46.169303,5.758416,46.193325
01358,01,Saint-Germain-les-Paroisses,5.619874311740889,45.77129634412953,247,01300,5.605792,45.763979,5.640439,45.784281
01359,01,Saint-Germain-sur-Renon,5.058774858267717,46.07944220472441,127,01240,5.029669,46.052292,5.091355,46.093218
01360,01,Saint-Jean-de-Gonville,5.9527201619786485,46.2115921901067,1031,01630,5.934077,46.203323,5.967187,46.22691
01361,01,Saint-Jean-de-Niost,5.219076917541231,45.84433867166419,667,01800,5.209354,45.827778,5.229816,45.854662
01362,01,Saint-Jean-de-Thurigneux,4.88920058778626,45.95470497964378,393,01390,4.871063,45.945353,4.924525,45.981877
01363,01,Saint-Jean-le-Vieux,5.388484616193476,46.03085418086219,951,01640,5.337624,46.022013,5.410751,46.039573
01364,01,Saint-Jean-sur-Reyssouze,5.0636129797570835,46.39725103441299,494,01560,5.027782,46.360093,5.090093,46.423103
01365,01,Saint-Jean-sur-Veyle,4.917309159999994,46.266747007272734,550,01290,4.892371,46.249953,4.943635,46.28846
01366,01,Sainte-Julie,5.283954724271844,45.88776340776704,515,01150,5.270357,45.860043,5.295696,45.896942
01367,01,Saint-Julien-sur-Reyssouze,5.109636683673469,46.40178556632649,392,01560,5.093526,46.384058,5.123972,46.415286
01368,01,Saint-Julien-sur-Veyle,4.959821992327365,46.20225789514067,391,01540,4.934598,46.18516,4.981158,46.228624
01369,01,Saint-Just,5.282299006578951,46.1926220789473,456,01250,5.273433,46.180851,5.290346,46.211716
01370,01,Saint-Laurent-sur-Saône,4.840589632258063,46.305396868817176,465,01750,4.837813,46.302401,4.843659,46.31008
01371,01,Saint-Marcel,4.985444454945058,45.94961181978019,455,01390,4.966774,45.933104,5.009306,45.961917
01372,01,Saint-Martin-de-Bavel,5.681860127737218,45.84813005109491,274,01510,5.663797,45.83783,5.693376,45.861484
01373,01,Saint-Martin-du-Frêne,5.5538103542510155,46.137950912955525,494,01430,5.544532,46.129792,5.582507,46.147377
01374,01,Saint-Martin-du-Mont,5.326119341254751,46.10447021673008,1052,01160,5.298719,46.07971,5.349166,46.124967
01375,01,Saint-Martin-le-Châtel,5.122799232736572,46.2865293324808,391,01310,5.090503,46.273512,5.146266,46.306077
01376,01,Saint-Maurice-de-Beynost,4.97894300511771,45.830110728761554,977,01700,4.971746,45.820999,4.989267,45.838516
01378,01,Saint-Maurice-de-Gourdans,5.186890352941174,45.81849035386035,1088,01800,5.131278,45.807824,5.21263,45.827162
01379,01,Saint-Maurice-de-Rémens,5.272970782705101,45.95590061862525,451,01500,5.256087,45.934893,5.28098,45.960937
01380,01,Saint-Nizier-le-Bouchoux,5.165524884279475,46.45611903275116,458,01560,5.129796,46.433758,5.215327,46.480924
01381,01,Saint-Nizier-le-Désert,5.145750469314081,46.053865487364604,554,01320,5.108508,46.02777,5.182513,46.078924
01382,01,Sainte-Olive,4.932466826086953,46.01668766459627,161,01330,4.914699,46.00442,4.956246,46.028443
01383,01,Saint-Paul-de-Varax,5.1294065012953345,46.09769307512954,772,01240,5.091096,46.069531,5.154289,46.119589
01384,01,Saint-Rambert-en-Bugey,5.4355974421487705,45.946373333884296,1210,01230,5.414719,45.918992,5.465581,45.985849
01385,01,Saint-Rémy,5.166694556053814,46.18972257847537,446,01310,5.15014,46.171501,5.183434,46.200707
01386,01,Saint-Sorlin-en-Bugey,5.366331785330944,45.885450101967784,559,01150,5.343315,45.879827,5.376404,45.893396
01387,01,Saint-Sulpice,5.0428175350877185,46.320671964912286,114,01340,5.025377,46.307405,5.052449,46.332399
01388,01,Saint-Trivier-de-Courtes,5.0753636886632805,46.459285651438215,591,01560,5.033502,46.433479,5.098913,46.485594
01389,01,Saint-Trivier-sur-Moignans,4.897640919491525,46.06974130649721,708,01990,4.852715,46.029806,4.942664,46.10005
01390,01,Saint-Vulbas,5.279166469964658,45.824788086572426,566,01150,5.232905,45.807361,5.298807,45.86131
01391,01,Salavre,5.346232886792456,46.36490441509433,212,01270,5.32853,46.359163,5.368197,46.374506
01392,01,Samognat,5.57722529065744,46.25561374048443,289,01580,5.559825,46.23944,5.594231,46.281209
01393,01,Sandrans,4.98133971936759,46.063688355731216,253,01400,4.950521,46.038486,5.016287,46.100017
01396,01,Sault-Brénaz,5.4041475395833345,45.85907029583338,480,01150,5.391578,45.848561,5.417712,45.869031
01397,01,Sauverny,6.111793997903564,46.3133764989518,477,01220,6.097101,46.306108,6.123375,46.318355
01398,01,Savigneux,4.848190643463496,46.000035760611205,589,01480,4.830685,45.980319,4.884217,46.014443
01399,01,Ségny,6.0724794311717885,46.29576381114907,879,01170,6.063181,46.290013,6.081081,46.301075
01400,01,Seillonnaz,5.495234647727272,45.7974997840909,88,01470,5.487502,45.784347,5.511548,45.807593
01401,01,Sergy,6.000244555555551,46.25309439068087,837,01630,5.985349,46.244541,6.025475,46.266061
01402,01,Sermoyer,4.982278094086026,46.49645404838712,372,01190,4.974634,46.484245,5.014166,46.514768
01403,01,Serrières-de-Briord,5.449187887029292,45.8075401687587,717,01470,5.427151,45.802056,5.456448,45.819705
01404,01,Serrières-sur-Ain,5.4421050114942515,46.14015668965519,174,01450,5.423047,46.119895,5.464838,46.177477
01405,01,Servas,5.17201617041198,46.134604859550564,534,01960,5.151307,46.112074,5.219549,46.163853
01406,01,Servignat,5.062836307692307,46.4353169145299,117,01560,5.032796,46.421324,5.082763,46.445852
01407,01,Seyssel,5.829882690417687,45.95667602702702,407,01420,5.82043,45.941293,5.833183,45.962087
01408,01,Simandre-sur-Suran,5.419573071428571,46.229480940476186,420,01250,5.408722,46.220114,5.454719,46.255562
01410,01,Sonthonnax-la-Montagne,5.514443492063495,46.22215257671961,189,01580,5.493465,46.204596,5.524994,46.235629
01411,01,Souclin,5.420403963541667,45.873530432291666,192,01150,5.405897,45.867539,5.429432,45.887196
01412,01,Sulignat,4.960075861386135,46.17586000990101,303,01400,4.942253,46.158328,4.98652,46.188677
01415,01,Talissieu,5.715053820224719,45.86867808614231,267,01510,5.703461,45.856564,5.726608,45.873631
01416,01,Tenay,5.510736861623607,45.92312614022139,542,01230,5.497227,45.910758,5.520832,45.937722
01418,01,Thil,5.0222228094117645,45.81616046823533,425,01120,5.014994,45.811315,5.032807,45.824407
01419,01,Thoiry,5.978398940305422,46.23817531466902,2161,01710,5.94511,46.220764,6.011873,46.257137
01420,01,Thoissey,4.8023540912220275,46.17306537177283,581,01140,4.797292,46.169824,4.807304,46.175662
01421,01,Torcieu,5.401179868189811,45.92436679964853,569,01230,5.389254,45.908581,5.416878,45.9362
01422,01,Tossiat,5.310538426367454,46.13939534642357,713,01250,5.282728,46.118238,5.326126,46.145236
01423,01,Toussieux,4.823323338266388,45.9582800655391,473,01600,4.814054,45.948827,4.836815,45.96421
01424,01,Tramoyes,4.965441029914534,45.87279164102562,468,01390,4.934159,45.863028,4.976455,45.879667
01425,01,La Tranclière,5.26437364835165,46.106443862637384,182,01160,5.243085,46.078028,5.2887,46.115214
01426,01,Val-Revermont,5.367299112344872,46.28309710777268,1531,01370,5.304737,46.241164,5.397294,46.328336
01427,01,Trévoux,4.775792249189449,45.942112475683,2159,01600,4.74991,45.927168,4.796638,45.954245
01428,01,Valeins,4.865775444444444,46.11299018518516,54,01140,4.851645,46.107689,4.874252,46.118657
01429,01,Vandeins,5.081504670212767,46.216342281914905,376,01660,5.061507,46.199644,5.097556,46.230877
01430,01,Varambon,5.311175295977014,46.03896221839083,348,01160,5.295308,46.029023,5.318187,46.048499
01431,01,Vaux-en-Bugey,5.355329412596404,45.92650186246783,778,01150,5.336433,45.918825,5.369366,45.93068
01432,01,Verjon,5.348810675000001,46.34563313499995,200,01270,5.337876,46.336769,5.358553,46.353412
01433,01,Vernoux,5.108129055555555,46.482782451388886,144,01560,5.072106,46.471796,5.133488,46.495908
01434,01,Versailleux,5.10604002766798,45.98206931225296,253,01330,5.077279,45.967205,5.150142,46.005093
01435,01,Versonnex,6.100066252771619,46.30018979711751,902,01210,6.092488,46.293235,6.112265,46.311153
01436,01,Vesancy,6.087381200000003,46.34858495111111,225,01170,6.079361,46.344478,6.097424,46.353602
01437,01,Vescours,5.027983338129494,46.47641227338128,139,01560,5.010616,46.450231,5.051381,46.498425
01439,01,Vésines,4.86664610909091,46.3597066,55,01570,4.856957,46.35668,4.86885,46.362801
01441,01,Vieu-d'Izenave,5.538465206122446,46.086881165306096,490,01430,5.510271,46.06615,5.60137,46.099288
01443,01,Villars-les-Dombes,5.033832828711266,46.001492671016976,1839,01330,5.00969,45.987568,5.05827,46.015357
01444,01,Villebois,5.432674422965116,45.84853237063957,688,01150,5.42143,45.836682,5.439785,45.858547
01445,01,Villemotier,5.316012218354435,46.34346168037972,316,01270,5.277471,46.316523,5.335817,46.371011
01446,01,Villeneuve,4.840583981818182,46.02243220000002,660,01480,4.812276,46.004486,4.901497,46.061158
01447,01,Villereversure,5.394613496229261,46.19035960331827,663,01250,5.378892,46.173007,5.412098,46.207088
01448,01,Villes,5.7833284319526665,46.08941244970413,169,01200,5.778605,46.08579,5.788561,46.092334
01449,01,Villette-sur-Ain,5.268652044673537,45.990787017182136,291,01320,5.239951,45.985194,5.276929,46.009639
01450,01,Villieu-Loyes-Mollon,5.227972948717942,45.92553260644003,1677,01800,5.200125,45.897784,5.247677,45.954833
01451,01,Viriat,5.217740902826861,46.24330585335678,3396,01440,5.17678,46.211391,5.274781,46.285906
01452,01,Virieu-le-Grand,5.650913271880824,45.84728361266291,537,01510,5.637808,45.836131,5.663724,45.852826
01453,01,Arvière-en-Valromey,5.722460777562859,45.90684074081236,517,"01260,01510",5.709301,45.872438,5.759438,45.9653
01454,01,Virignin,5.7117844952919015,45.72264134839925,531,01300,5.701295,45.70846,5.725399,45.746221
01456,01,Vongnes,5.725809733333334,45.81520385000001,60,01350,5.723209,45.813045,5.730815,45.81769
01457,01,Vonnas,4.992047263728335,46.220671966040484,1384,01540,4.96876,46.184782,5.030448,46.236896
02001,02,Abbécourt,3.1792501018181816,49.5971250690909,275,02300,3.160997,49.590326,3.192693,49.608538
02002,02,Achery,3.390292747292417,49.69274970036103,277,02800,3.382219,49.685586,3.398603,49.701853
02003,02,Acy,3.415759179282868,49.35151423107572,502,02200,3.396724,49.340853,3.42989,49.3686
02004,02,Agnicourt-et-Séchelles,3.9627380190476194,49.71582864761904,105,02340,3.948733,49.710926,3.981704,49.723947
02005,02,Aguilcourt,3.969531920187792,49.404435201877966,213,02190,3.963411,49.395593,3.993276,49.408572
02006,02,Aisonville-et-Bernoville,3.5168849090909107,49.93256853246757,154,02110,3.507148,49.925196,3.527391,49.937785
02007,02,Aizelles,3.8113239838709667,49.48913422580643,62,02820,3.808586,49.486972,3.81455,49.490255
02008,02,Aizy-Jouy,3.515041225352112,49.43706297183102,142,02370,3.484868,49.431841,3.537345,49.457015
02009,02,Alaincourt,3.375714840517239,49.765143146551736,232,02240,3.36276,49.755364,3.382597,49.769946
02010,02,Allemant,3.4565720240963858,49.459617421686744,83,02320,3.441785,49.454862,3.48324,49.464937
02011,02,Ambleny,3.1877517775974042,49.38001684577923,616,02290,3.161966,49.36449,3.222403,49.395437
02012,02,Ambrief,3.401380238095238,49.31887716666667,42,02200,3.399636,49.316826,3.404348,49.320648
02013,02,Amifontaine,3.9176579475982534,49.486660969432315,229,02190,3.90528,49.481599,3.949511,49.520315
02014,02,Amigny-Rouy,3.303304357142859,49.6092537671958,378,02700,3.282408,49.598847,3.321218,49.629031
02015,02,Ancienville,3.213516073170732,49.2179176097561,41,02600,3.204739,49.215005,3.215037,49.223625
02016,02,Andelain,3.3708264239130417,49.64177942391305,92,02800,3.367517,49.638744,3.373954,49.646921
02017,02,Anguilcourt-le-Sart,3.43276984,49.688248433333335,150,02800,3.424572,49.679255,3.438705,49.693065
02018,02,Anizy-le-Grand,3.4546407820097262,49.510199839546175,1234,02320,3.392538,49.492661,3.492216,49.541809
02019,02,Annois,3.1776021595744686,49.71705757978722,188,02480,3.169923,49.699878,3.184738,49.727479
02020,02,Any-Martin-Rieux,4.215310467647057,49.88088572352941,340,02500,4.18613,49.865739,4.245577,49.907291
02021,02,Archon,4.119559950819671,49.740545491803296,61,02360,4.113706,49.738086,4.132663,49.746602
02022,02,Arcy-Sainte-Restitue,3.471583218106995,49.25214168312757,243,02130,3.440414,49.240631,3.512104,49.267284
02023,02,Armentières-sur-Ourcq,3.385518205128203,49.18275875641026,78,02210,3.380318,49.167679,3.39699,49.190313
02024,02,Arrancy,3.7552074482758626,49.49260889655173,29,02860,3.753572,49.491374,3.762153,49.500113
02025,02,Artemps,3.190545192546581,49.764544204968914,161,02480,3.168515,49.755587,3.196587,49.767402
02027,02,Assis-sur-Serre,3.5592479523809546,49.68747301587303,126,02270,3.551322,49.684553,3.565631,49.692085
02028,02,Athies-sous-Laon,3.684278624208861,49.57233810522149,1264,02840,3.660627,49.560086,3.714793,49.581728
02029,02,Attilly,3.1624103750000008,49.857091765625,192,02490,3.128121,49.853467,3.176582,49.87099
02030,02,Aubencheul-aux-Bois,3.266089661870501,50.02829816546764,139,02420,3.26025,50.025253,3.27186,50.030445
02031,02,Aubenton,4.200323598484848,49.83319382575758,396,02500,4.171893,49.78445,4.218921,49.860636
02032,02,Aubigny-aux-Kaisnes,3.116961801724138,49.77442893965517,116,02590,3.108777,49.771026,3.121329,49.778591
02033,02,Aubigny-en-Laonnois,3.790931396825397,49.49685223809525,63,02820,3.779924,49.487731,3.794385,49.499076
02034,02,Audignicourt,3.1322099193548385,49.47800662903228,62,02300,3.123043,49.472161,3.135819,49.480532
02035,02,Audigny,3.645188304000001,49.86964161600003,125,02120,3.621598,49.86367,3.656835,49.874906
02036,02,Augy,3.514259783333334,49.33871006666667,60,02220,3.511439,49.337325,3.516924,49.342382
02037,02,Aulnois-sous-Laon,3.608357814285717,49.61203282380962,630,02000,3.595389,49.6054,3.636366,49.627962
02038,02,Les Autels,4.2280620199999985,49.76112297999998,100,02360,4.201644,49.754533,4.235844,49.768147
02039,02,Autremencourt,3.786835576470589,49.704530141176456,85,02250,3.78169,49.702846,3.811223,49.711246
02040,02,Autreppes,3.855275100000001,49.90397654545455,110,02580,3.848638,49.900743,3.861105,49.907214
02041,02,Autreville,3.2362918656330755,49.58879490697679,387,02300,3.221263,49.576726,3.246774,49.60028
02042,02,Azy-sur-Marne,3.362633020325202,49.0016056666667,246,02400,3.340795,48.995818,3.375793,49.007428
02043,02,Bagneux,3.278914586206896,49.457558758620685,29,02290,3.2747,49.45667,3.284663,49.458682
02044,02,Bancigny,4.0335699583333335,49.801339583333345,24,02140,4.029043,49.799756,4.03769,49.805001
02046,02,Barenton-Bugny,3.6515746961130735,49.63157771731449,283,02000,3.626979,49.61007,3.671361,49.636058
02047,02,Barenton-Cel,3.652088185185185,49.64252905555555,54,02000,3.641619,49.635104,3.656123,49.645164
02048,02,Barenton-sur-Serre,3.6813161159420296,49.67084713043477,69,02270,3.677141,49.665413,3.6971,49.673007
02049,02,Barisis-aux-Bois,3.327684126865671,49.57797626119405,402,02700,3.312072,49.563259,3.35134,49.593817
02050,02,Barzy-en-Thiérache,3.7480807710843362,50.0391634879518,166,02170,3.72835,50.022153,3.774491,50.052891
02051,02,Barzy-sur-Marne,3.555507742187499,49.08206841015619,256,02850,3.541094,49.071671,3.56659,49.099708
02052,02,Bassoles-Aulers,3.3820655384615383,49.527152999999984,78,02380,3.371923,49.521969,3.39225,49.548184
02053,02,Vallées en Champagne,3.6131884324894536,49.00566607594938,474,02330,3.580236,48.971802,3.656717,49.031885
02054,02,Bazoches-et-Saint-Thibaut,3.6175193620689696,49.30613466206896,290,02220,3.601865,49.286471,3.635305,49.318216
02055,02,Beaumé,4.15220922105263,49.82777404210526,95,02500,4.142497,49.812437,4.169051,49.840004
02056,02,Beaumont-en-Beine,3.1320566477272735,49.69080694318183,88,02300,3.123823,49.683956,3.13671,49.698946
02057,02,Beaurevoir,3.3132541408839766,49.99631636602214,724,02110,3.297084,49.98838,3.366951,50.002882
02058,02,Beaurieux,3.736829724511933,49.39163895010844,461,02160,3.7281,49.383127,3.744431,49.396269
02059,02,Beautor,3.34083864122738,49.656732838709736,1271,02800,3.327309,49.645982,3.351373,49.666908
02060,02,Beauvois-en-Vermandois,3.1036688449612426,49.83847454263562,129,02590,3.092756,49.81962,3.107765,49.843055
02061,02,Becquigny,3.4672893902439026,50.01714597560978,123,02110,3.435074,50.012423,3.477327,50.021661
02062,02,Belleau,3.296062681318681,49.08612828571427,91,02400,3.290114,49.076401,3.31227,49.093713
02063,02,Bellenglise,3.2469328760683753,49.92136849572647,234,02420,3.237734,49.917587,3.254268,49.927589
02064,02,Belleu,3.3348593023930406,49.36256568890494,1379,02200,3.321815,49.351559,3.347263,49.372073
02065,02,Bellicourt,3.234141960725076,49.95903866163141,331,02420,3.229307,49.940228,3.243293,49.968376
02066,02,Benay,3.304968380000001,49.75996145999999,100,02440,3.301455,49.754644,3.313752,49.763475
02067,02,Bergues-sur-Sambre,3.7092475762711867,50.03115288135592,118,02450,3.689996,50.023464,3.738884,50.035141
02068,02,Berlancourt,3.756869976744186,49.778914441860465,43,02250,3.75431,49.776536,3.760418,49.780903
02069,02,Berlise,4.106964355932203,49.66128445762712,59,02340,4.10407,49.654769,4.120909,49.664906
02070,02,Bernot,3.49884807003891,49.86833029571988,257,02120,3.490652,49.864573,3.508614,49.87367
02071,02,Berny-Rivière,3.1459977423312893,49.4076342484663,326,02290,3.127359,49.403922,3.16872,49.410817
02072,02,Berrieux,3.8475661923076903,49.48781897115386,104,02820,3.844863,49.485407,3.849634,49.491195
02073,02,Berry-au-Bac,3.9016859365079393,49.402596307936506,315,02190,3.872276,49.394173,3.912706,49.410894
02074,02,Bertaucourt-Epourdon,3.3918376372239765,49.626614936908524,317,02800,3.375484,49.614258,3.417735,49.642034
02075,02,Berthenicourt,3.382084715789473,49.77137989473685,95,02240,3.372431,49.767771,3.385494,49.776296
02076,02,Bertricourt,4.009167861111109,49.395148236111105,72,02190,4.006744,49.393534,4.011137,49.397186
02078,02,Besmé,3.1621271410256413,49.53762334615385,78,02300,3.158273,49.53205,3.174225,49.541148
02079,02,Besmont,4.120815111801241,49.8247933478261,161,02500,4.091467,49.81071,4.14481,49.840357
02080,02,Besny-et-Loizy,3.5828317732558146,49.596914302325565,172,02870,3.563664,49.580373,3.599018,49.60768
02081,02,Béthancourt-en-Vaux,3.145621587628867,49.628772077319596,194,02300,3.138506,49.624143,3.151715,49.632514
02082,02,Beugneux,3.4164415769230763,49.22479374358976,78,02210,3.409416,49.207884,3.422091,49.236047
02083,02,Beuvardes,3.4870644270833324,49.138488632812546,384,02130,3.473452,49.106926,3.507411,49.152663
02084,02,Bézu-le-Guéry,3.224165964788733,49.00802239436622,142,02310,3.199356,48.994858,3.248602,49.027571
02085,02,Bézu-Saint-Germain,3.403492652650824,49.09911051188299,547,02400,3.390573,49.082221,3.423511,49.118173
02086,02,Bichancourt,3.210516492753623,49.582976745341625,483,02300,3.20008,49.5681,3.222447,49.593802
02087,02,Bieuxy,3.2701155897435896,49.4467826923077,39,02290,3.260267,49.445792,3.281756,49.447833
02088,02,Bièvres,3.7114750975609763,49.49333736585366,41,02860,3.706853,49.48689,3.714733,49.495391
02089,02,Billy-sur-Aisne,3.377237282674775,49.359220793313035,658,02200,3.345999,49.345736,3.390172,49.372171
02090,02,Billy-sur-Ourcq,3.299100354330707,49.21746689763778,127,02210,3.276483,49.213605,3.318102,49.234457
02091,02,Blanzy-lès-Fismes,3.6724644285714287,49.33777834693877,49,02160,3.654825,49.333664,3.677457,49.338996
02093,02,Blérancourt,3.1523349743589764,49.51573099715097,702,02300,3.126722,49.501915,3.166737,49.523504
02094,02,Blesmes,3.4487815972850666,49.037794036199074,221,02400,3.438084,49.035575,3.454303,49.040735
02095,02,Bohain-en-Vermandois,3.45472603675184,49.9858427101856,2857,02110,3.421454,49.965526,3.507255,50.010735
02096,02,Bois-lès-Pargny,3.650566549019607,49.73082624509803,102,02270,3.643938,49.727326,3.664299,49.733597
02097,02,Boncourt,3.947624041916168,49.61771995209583,167,02350,3.943458,49.611983,3.963548,49.639405
02098,02,Bonneil,3.3468593497536965,49.00808137931038,203,02400,3.338478,48.9997,3.35413,49.011632
02099,02,Bonnesvalyn,3.3181529152542377,49.1212723220339,118,02400,3.311201,49.117523,3.326314,49.125944
02100,02,Bony,3.2263213548387104,49.99118943548386,62,02420,3.219826,49.984708,3.242627,50.004536
02101,02,Bosmont-sur-Serre,3.8585930851063814,49.7320404680851,94,02250,3.846778,49.724656,3.879687,49.754418
02102,02,Bouconville-Vauclair,3.7560704745762696,49.46489410169491,118,02860,3.738209,49.437832,3.76988,49.483131
02103,02,Boué,3.6989290353089572,50.011861271122285,793,02450,3.688054,50.00455,3.739939,50.024715
02104,02,Bouffignereux,3.844433596491228,49.37319485964912,57,02160,3.835294,49.371152,3.847812,49.374813
02105,02,Bouresches,3.309090941176469,49.06303834313725,102,02400,3.303525,49.061151,3.332364,49.073506
02106,02,Bourg-et-Comin,3.655520614173227,49.396636971128565,381,02160,3.644174,49.388663,3.666513,49.405799
02107,02,Bourguignon-sous-Coucy,3.159237139534884,49.54155904651162,43,02300,3.151575,49.539439,3.164059,49.544535
02108,02,Bourguignon-sous-Montbavin,3.5408519012345696,49.52735722222222,81,02000,3.536322,49.524414,3.544934,49.529483
02109,02,La Bouteille,3.9663409496124027,49.86808306201547,258,02140,3.930877,49.848088,3.990038,49.903531
02110,02,Braine,3.5341996549019674,49.342623609803944,1020,02220,3.508825,49.33147,3.55222,49.35402
02111,02,Brancourt-en-Laonnois,3.4168066666666665,49.51493842201837,327,02320,3.410528,49.510372,3.421659,49.528505
02112,02,Brancourt-le-Grand,3.3830890352112672,49.9770101584507,284,02110,3.372674,49.9681,3.417062,49.992589
02114,02,Brasles,3.4213116455284553,49.048769151219474,615,02400,3.399221,49.043114,3.434107,49.07243
02115,02,Braye-en-Laonnois,3.611441340909088,49.44115615151516,132,02000,3.603584,49.426136,3.623338,49.447425
02116,02,Braye-en-Thiérache,3.9600498181818207,49.77605927272726,88,02140,3.95131,49.759131,3.970403,49.782591
02117,02,Bray-Saint-Christophe,3.143700828571428,49.76959274285714,35,02480,3.140487,49.766287,3.14943,49.772423
02118,02,Braye,3.371609985915492,49.42301498591549,71,02880,3.368337,49.41879,3.377373,49.428
02119,02,Brécy,3.4273830216216217,49.14732071891892,185,02210,3.402511,49.12587,3.442298,49.156137
02120,02,Brenelle,3.5420096578947375,49.366496692982444,114,02220,3.538586,49.359495,3.549153,49.369817
02121,02,Breny,3.3521193529411772,49.18631866386555,119,02210,3.344221,49.181614,3.365637,49.190732
02122,02,Brie,3.480889804878049,49.600642975609766,41,02870,3.476489,49.6,3.485228,49.60145
02123,02,Brissay-Choigny,3.3784707419354847,49.72129259354839,155,02240,3.372959,49.714858,3.381671,49.730559
02124,02,Brissy-Hamégicourt,3.3808426746987945,49.74388133734937,332,02240,3.369383,49.737293,3.38673,49.752411
02125,02,Brumetz,3.1587757999999995,49.10251128181818,110,02810,3.126984,49.100769,3.168924,49.115926
02126,02,Brunehamel,4.181605840531563,49.77026725249166,301,02360,4.169025,49.757687,4.210084,49.78392
02127,02,Bruyères-sur-Fère,3.447820915094339,49.19400848113204,106,02130,3.437271,49.186393,3.462342,49.204545
02128,02,Bruyères-et-Montbérault,3.6655564664391367,49.524726142207115,879,02860,3.650141,49.497777,3.682726,49.544733
02129,02,Bruys,3.5660007083333336,49.26581704166665,24,02220,3.55934,49.251701,3.575886,49.270922
02130,02,Bucilly,4.0957518275862075,49.875671077586205,116,02500,4.073521,49.854276,4.107666,49.886845
02131,02,Bucy-le-Long,3.3966104063829783,49.3909902180851,940,02880,3.357142,49.369353,3.421328,49.400413
02132,02,Bucy-lès-Cerny,3.515424163265308,49.58235659183672,98,02870,3.508704,49.579542,3.519612,49.585876
02133,02,Bucy-lès-Pierrepont,3.901151847161574,49.647194938864665,229,02350,3.893924,49.643489,3.914811,49.668976
02134,02,Buire,4.0626884764150955,49.90836701650937,424,02500,4.042732,49.900754,4.072617,49.916612
02135,02,Buironfosse,3.834995083823528,49.96266603088233,680,02620,3.803453,49.943097,3.860961,49.975271
02136,02,Burelles,3.897902743243243,49.782015554054055,74,02140,3.890578,49.779958,3.906999,49.786427
02137,02,Bussiares,3.255317043010754,49.08350482795698,93,02810,3.239285,49.057056,3.265802,49.091688
02138,02,Buzancy,3.346332022471909,49.31307421348315,89,02200,3.342195,49.311046,3.349917,49.314931
02139,02,Caillouël-Crépigny,3.1247666106194694,49.61878233185837,226,02300,3.116328,49.610495,3.13204,49.625438
02140,02,Camelin,3.1344854816513754,49.5225747385321,218,02300,3.106963,49.514506,3.148279,49.526548
02141,02,La Capelle,3.917346453537935,49.97662107416879,1173,02260,3.876568,49.958118,3.946168,49.984976
02142,02,Castres,3.2387668303571417,49.80546276785713,112,02680,3.234022,49.80097,3.250659,49.815152
02143,02,Le Catelet,3.2431634018691606,50.00173243925234,107,02420,3.236515,49.999274,3.246634,50.003394
02144,02,Caulaincourt,3.1045241780821913,49.865207301369864,73,02490,3.099459,49.863729,3.108538,49.869162
02145,02,Caumont,3.1734739750000003,49.635332516666686,240,02300,3.165445,49.628627,3.183556,49.645495
02146,02,Celles-lès-Condé,3.5699237763157905,49.01075855263157,76,02330,3.565548,49.005616,3.580427,49.01461
02148,02,Celles-sur-Aisne,3.4808089836065577,49.40671886885243,122,02370,3.457124,49.401996,3.495765,49.422643
02149,02,Cerizy,3.3315313846153853,49.76352734615386,26,02240,3.325127,49.759579,3.342218,49.770573
02150,02,Cerny-en-Laonnois,3.6686089032258056,49.44351354838709,31,02860,3.665204,49.441205,3.67074,49.459339
02151,02,Cerny-lès-Bucy,3.5468432241379317,49.57805937931033,58,02870,3.543054,49.574513,3.550707,49.581305
02152,02,Cerseuil,3.5201779821428567,49.32358146428571,56,02220,3.514774,49.320358,3.530985,49.325281
02153,02,Cessières-Suzy,3.4850550809399445,49.555584877284595,383,02320,3.455723,49.546801,3.528594,49.56533
02154,02,Chacrise,3.398529708791208,49.30457725274724,182,02200,3.377503,49.29887,3.408383,49.307711
02155,02,Chaillevois,3.5251677647058814,49.51342520588238,102,02000,3.523038,49.51078,3.528276,49.516684
02156,02,Chalandry,3.6418772100840333,49.6768215462185,119,02270,3.635999,49.662369,3.646459,49.679599
02157,02,Chambry,3.6557764460887943,49.590715627906974,473,02000,3.646259,49.580101,3.69492,49.607784
02158,02,Chamouille,3.6657161884057965,49.47384148550723,138,02860,3.660117,49.46822,3.681982,49.476006
02159,02,Champs,3.25943639035088,49.54140519736841,228,02670,3.236467,49.515312,3.286389,49.554502
02160,02,Chaourse,3.999309591078069,49.70095061710036,269,02340,3.987051,49.693361,4.019887,49.709246
02162,02,La Chapelle-sur-Chézy,3.381895371900826,48.94671079338842,121,02570,3.355709,48.939095,3.401366,48.958034
02163,02,Charly-sur-Marne,3.2834488618113897,48.97663758543417,1071,02310,3.258788,48.948214,3.307276,49.009995
02164,02,Le Charmel,3.5475986900000014,49.11259018,200,02850,3.529065,49.104779,3.559301,49.125005
02165,02,Charmes,3.37959965965346,49.653458059405956,808,02800,3.37251,49.64516,3.394321,49.664039
02166,02,Chartèves,3.504547994764399,49.07573794764399,191,02400,3.49069,49.073702,3.514687,49.102814
02167,02,Chassemy,3.5079933539603942,49.38010173514854,404,02370,3.478291,49.376355,3.518638,49.400986
02168,02,Château-Thierry,3.392901652056034,49.04858529484873,4426,02400,3.347863,49.03226,3.413355,49.072821
02169,02,Châtillon-lès-Sons,3.6859095000000015,49.759492,54,02270,3.680356,49.757294,3.715072,49.773224
02170,02,Châtillon-sur-Oise,3.4199401111111114,49.79108465277779,72,02240,3.413405,49.786545,3.423434,49.79366
02171,02,Chaudardes,3.7903602600000013,49.391730240000015,50,02160,3.771902,49.390117,3.793472,49.3982
02172,02,Chaudun,3.2651361000000017,49.317542958333306,120,02200,3.24896,49.31164,3.268997,49.325134
02173,02,Chauny,3.216889580260712,49.61679733500926,5370,02300,3.196882,49.601701,3.24282,49.632173
02174,02,Chavignon,3.5220912872807033,49.480639285087705,456,02000,3.50246,49.458789,3.542799,49.497645
02175,02,Chavigny,3.3053040289855082,49.425484173913034,69,02880,3.300928,49.423901,3.308314,49.428148
02176,02,Chavonne,3.570109032608695,49.404048989130445,92,02370,3.55458,49.40229,3.578116,49.405912
02177,02,Chérêt,3.683877392405063,49.51502088607596,79,02860,3.672862,49.513255,3.690668,49.526164
02178,02,Chermizy-Ailles,3.7248127968749998,49.468122390625005,64,02860,3.706738,49.453518,3.743597,49.483674
02179,02,Chéry-Chartreuve,3.610478624505926,49.25747244268774,253,02220,3.586182,49.23908,3.629234,49.270265
02180,02,Chéry-lès-Pouilly,3.60515929618768,49.65678976246333,341,02000,3.596679,49.651428,3.611378,49.660652
02181,02,Chéry-lès-Rozoy,4.092965661290323,49.71939272580646,62,02360,4.089948,49.713654,4.098979,49.721545
02182,02,Chevennes,3.733922857142857,49.81468075714287,70,02250,3.725948,49.809297,3.740169,49.81828
02183,02,Chevregny,3.591743544642856,49.471850767857156,112,02000,3.582373,49.468406,3.596122,49.475431
02184,02,Chevresis-Monceau,3.572910668965517,49.753847337931,145,02270,3.559596,49.744853,3.621934,49.757723
02185,02,Chézy-en-Orxois,3.1803585858585848,49.12431127272727,198,02810,3.135364,49.119832,3.188638,49.142854
02186,02,Chézy-sur-Marne,3.375041472727272,48.98586611515152,660,02570,3.347939,48.962413,3.42889,49.003035
02187,02,Chierry,3.430352817005545,49.03810990388169,541,02400,3.413948,49.028427,3.446903,49.041526
02188,02,Chigny,3.771885358490568,49.9191146226415,106,02120,3.7638,49.91222,3.791836,49.952715
02189,02,Chivres-en-Laonnois,3.8417031451612913,49.633426569892485,186,02350,3.833465,49.6166,3.850609,49.637429
02190,02,Chivres-Val,3.435086098113206,49.39550512452833,265,02880,3.42109,49.389605,3.442216,49.417927
02191,02,Chivy-lès-Étouvelles,3.5831769641577056,49.530036383512524,279,02000,3.573678,49.526069,3.597433,49.540082
02192,02,Chouy,3.2493082345132738,49.21144309734513,226,02210,3.229456,49.203524,3.278036,49.232174
02193,02,Cierges,3.5994079999999995,49.167872173913054,46,02130,3.596561,49.165641,3.605167,49.169275
02194,02,Cilly,3.832984264150942,49.73864709433959,106,02250,3.825014,49.73387,3.867834,49.758716
02195,02,Ciry-Salsogne,3.4663331250000007,49.36489584905659,424,02220,3.455156,49.358,3.484279,49.386991
02196,02,Clacy-et-Thierret,3.5710516730769233,49.54639114903848,208,02000,3.55117,49.542935,3.581406,49.554965
02197,02,Clairfontaine,3.9804423689320396,49.970530867313904,309,02260,3.957501,49.943331,4.025183,49.995264
02198,02,Clamecy,3.3628730485436886,49.42824415533982,103,02880,3.35906,49.426185,3.367367,49.429873
02199,02,Clastres,3.2332428464419474,49.745391411985,267,02440,3.223991,49.739245,3.253718,49.756473
02200,02,Clermont-les-Fermes,3.938611838235293,49.66634997058823,68,02340,3.925314,49.661389,3.94685,49.669364
02201,02,Cœuvres-et-Valsery,3.1557571848341244,49.33842478672984,211,02600,3.137986,49.319499,3.17319,49.348172
02203,02,Coincy,3.422775521447721,49.16230703217154,746,02210,3.411952,49.154278,3.460161,49.182489
02204,02,Coingt,4.097010186666668,49.791716266666654,75,02360,4.084445,49.784031,4.106973,49.795833
02205,02,Colligis-Crandelain,3.6353281121495353,49.47133396261683,107,02860,3.620242,49.461159,3.643788,49.478517
02206,02,Colonfay,3.7129753750000005,49.858654875000006,40,02120,3.709367,49.85601,3.718046,49.861877
02207,02,Commenchon,3.15721636283186,49.64254179646017,113,02300,3.147997,49.638773,3.16503,49.650907
02208,02,Concevreux,3.786192744680851,49.376142730496476,141,02160,3.747996,49.373366,3.821894,49.399964
02209,02,Condé-en-Brie,3.5600773664921492,49.00513653926702,382,02330,3.548559,48.99523,3.568026,49.011767
02210,02,Condé-sur-Aisne,3.469209161490682,49.39844765838509,161,02370,3.462962,49.395377,3.475732,49.401446
02211,02,Condé-sur-Suippe,3.9508412090909086,49.4195041681818,220,02190,3.92549,49.410095,3.961608,49.427685
02212,02,Condren,3.279767538674033,49.6422425276243,362,02700,3.263691,49.624377,3.285399,49.653996
02213,02,Connigis,3.5300739999999973,49.03284519999998,165,02330,3.52048,49.023727,3.547675,49.045518
02214,02,Contescourt,3.2310451999999996,49.793591066666664,30,02680,3.229519,49.791974,3.235148,49.801019
02215,02,Corbeny,3.8233060283505167,49.4633998402062,388,02820,3.815714,49.455391,3.847353,49.474076
02216,02,Corcy,3.210147173469386,49.253909198979585,196,02600,3.17917,49.247087,3.216831,49.258376
02217,02,Coucy-le-Château-Auffrique,3.3191068786610884,49.520330972803386,478,02380,3.286397,49.510374,3.340701,49.529367
02218,02,Coucy-lès-Eppes,3.7711128043478284,49.554232829192514,322,02840,3.762598,49.545741,3.788234,49.560763
02219,02,Coucy-la-Ville,3.3331671240310077,49.53502651937985,129,02380,3.323482,49.531256,3.361462,49.550526
02220,02,Coulonges-Cohan,3.631872880952379,49.200579360544246,294,02130,3.60707,49.17879,3.654006,49.216539
02221,02,Coupru,3.271404930555557,49.031533958333334,72,02310,3.252177,49.030278,3.27574,49.036725
02222,02,Courbes,3.4519288333333336,49.68492105555556,18,02800,3.449767,49.683797,3.453184,49.686479
02223,02,Courboin,3.5125119213483145,48.99374788202245,178,02330,3.484194,48.983002,3.553338,49.009979
02224,02,Courcelles-sur-Vesle,3.572528115384616,49.33919610439562,182,02220,3.566095,49.335457,3.583638,49.352534
02225,02,Courchamps,3.263710911111112,49.11321611111112,45,02810,3.255787,49.111773,3.266673,49.115868
02226,02,Courmelles,3.3152540097919223,49.34899580660957,817,02200,3.290109,49.338289,3.326196,49.358204
02227,02,Courmont,3.5758614444444454,49.14558088888888,81,02130,3.560836,49.119197,3.590548,49.153696
02228,02,Courtemont-Varennes,3.5427542087912065,49.07329315934068,182,02850,3.53411,49.070132,3.552329,49.081782
02229,02,Courtrizy-et-Fussigny,3.7889286862745095,49.520054529411766,51,02820,3.783707,49.512016,3.810707,49.522087
02230,02,Couvrelles,3.4867670721649473,49.33755635051546,97,02220,3.466497,49.330214,3.497184,49.344405
02231,02,Couvron-et-Aumencourt,3.5180850765765808,49.643647069819814,444,02270,3.491474,49.635392,3.539989,49.655251
02232,02,Coyolles,3.0387054838709675,49.23491495161291,124,02600,2.96496,49.183214,3.073607,49.244387
02233,02,Cramaille,3.45368842105263,49.229345618421064,76,02130,3.440506,49.227468,3.460787,49.231422
02234,02,Craonne,3.7883467636363646,49.43975989090908,55,02160,3.783486,49.438284,3.810881,49.449776
02235,02,Craonnelle,3.770859085714285,49.43064022857144,70,02160,3.76257,49.417782,3.780894,49.434946
02236,02,Crécy-au-Mont,3.3171534250000003,49.49030258000003,200,02380,3.296259,49.480653,3.33744,49.50137
02237,02,Crécy-sur-Serre,3.623756632835819,49.696078685074625,670,02270,3.613773,49.683437,3.63502,49.701335
02238,02,Crépy,3.512968267201832,49.60568695527528,872,02870,3.469057,49.585089,3.545078,49.634105
02239,02,Crézancy,3.5158403134328324,49.04816884888061,536,02650,3.504309,49.040667,3.526433,49.055882
02240,02,Croix-Fonsomme,3.3998782478632474,49.9237863760684,117,02110,3.385695,49.916665,3.406512,49.941215
02241,02,La Croix-sur-Ourcq,3.3522203188405792,49.16677871014493,69,02210,3.330712,49.151529,3.362372,49.171106
02242,02,Crouttes-sur-Marne,3.239932729870128,48.97886662077923,385,02310,3.231038,48.963996,3.25931,48.981858
02243,02,Crouy,3.3555043864353316,49.40190763880133,1268,02880,3.333209,49.392605,3.376485,49.414441
02244,02,Crupilly,3.753244837837837,49.926220540540555,37,02120,3.741035,49.923152,3.757578,49.93821
02245,02,Cuffies,3.3229976348808057,49.40075107151813,797,02880,3.30466,49.393369,3.333849,49.412769
02246,02,Cugny,3.155899033557046,49.7029388624161,298,02480,3.149015,49.685347,3.16722,49.713381
02248,02,Cuirieux,3.815651108108109,49.6810296081081,74,02350,3.812536,49.675463,3.818345,49.683479
02249,02,Cuiry-Housse,3.4921155438596485,49.29579898245615,57,02220,3.489529,49.292708,3.495619,49.298276
02250,02,Cuiry-lès-Chaudardes,3.7705822000000007,49.386160377777784,45,02160,3.768016,49.384864,3.773205,49.389063
02251,02,Cuiry-lès-Iviers,4.108256599999999,49.762037920000004,25,02360,4.103029,49.761122,4.111964,49.764077
02252,02,Cuissy-et-Geny,3.703868125,49.40800041666668,48,02160,3.696272,49.394593,3.730181,49.411715
02253,02,Cuisy-en-Almont,3.247641935135134,49.417496994594565,185,02200,3.238928,49.40775,3.269958,49.436663
02254,02,Cutry,3.1783289242424244,49.34630506060604,66,02600,3.173141,49.34317,3.185764,49.347405
02255,02,Cys-la-Commune,3.573471837837836,49.39136493243244,74,02220,3.568883,49.38686,3.579334,49.399815
02256,02,Dagny-Lambercy,4.04340686904762,49.7740897142857,84,02140,4.03943,49.766843,4.046863,49.78132
02257,02,Dallon,3.2394321137440794,49.8242683649289,211,02680,3.219596,49.813683,3.249826,49.8404
02258,02,Dammard,3.1916970052631575,49.14526140526315,190,02470,3.156762,49.139393,3.202866,49.148348
02259,02,Dampleux,3.1539660164835164,49.24316330219778,182,02600,3.141473,49.230481,3.160979,49.245641
02260,02,Danizy,3.390021412371133,49.66498859450169,291,02800,3.384675,49.661012,3.406411,49.676646
02261,02,Dercy,3.6863253488372085,49.70364028837205,215,02270,3.681598,49.699147,3.69302,49.706867
02262,02,Deuillet,3.359397027272728,49.62936851818181,110,02700,3.353014,49.625384,3.366569,49.636118
02263,02,Dhuizel,3.6187008970588233,49.36527938235294,68,02220,3.612875,49.360928,3.623915,49.368248
02264,02,Dizy-le-Gros,4.021848700712591,49.628749866983355,421,02340,4.01608,49.62213,4.029273,49.65622
02265,02,Dohis,4.136574328125,49.76219540625,64,02360,4.128534,49.761341,4.145322,49.763552
02266,02,Dolignon,4.083752,49.73121583333333,30,02360,4.079051,49.727673,4.086093,49.73288
02267,02,Dommiers,3.2123792375,49.327031549999994,160,02600,3.20448,49.32203,3.22086,49.330767
02268,02,Domptin,3.2759501178343973,49.01644836305734,314,02310,3.266309,49.009684,3.288767,49.023898
02269,02,Dorengt,3.6957812277227715,49.970154554455476,101,02450,3.673102,49.952666,3.72675,49.978276
02270,02,Douchy,3.1352411124999997,49.79611849999999,80,02590,3.132788,49.790728,3.138933,49.798628
02271,02,Dravegny,3.6397968024691356,49.23350303703705,81,02130,3.621729,49.226458,3.661642,49.253123
02272,02,Droizy,3.39342308064516,49.27674466129032,62,02210,3.389499,49.268101,3.399773,49.279108
02273,02,Dury,3.1309277999999994,49.74849116190475,105,02480,3.119106,49.742707,3.148684,49.757302
02274,02,Ébouleau,3.874820252525251,49.67256807070709,99,02350,3.869454,49.670804,3.880431,49.674644
02275,02,Effry,3.985465206521741,49.9262747608696,184,02500,3.981392,49.907949,3.990225,49.929254
02276,02,Englancourt,3.8065012087912082,49.92482464835165,91,02260,3.793371,49.910671,3.821202,49.939395
02277,02,Épagny,3.2436017865853652,49.462460335365854,164,02290,3.232872,49.457382,3.280284,49.474214
02278,02,Éparcy,4.0617135,49.87748495454546,22,02500,4.058313,49.872948,4.068751,49.90021
02279,02,Épaux-Bézu,3.3474036360655726,49.107720472131135,305,02400,3.328304,49.078103,3.392977,49.118741
02280,02,Épieds,3.449874401069519,49.10853867914438,187,02400,3.440023,49.093122,3.469228,49.120663
02281,02,L'Épine-aux-Bois,3.447938015503877,48.89238613178296,129,02540,3.420366,48.881975,3.467037,48.91426
02282,02,Eppes,3.7387844273127757,49.55571705726873,227,02840,3.733183,49.547658,3.74827,49.559749
02283,02,Erlon,3.713355447761194,49.727571380597,134,02250,3.707607,49.724662,3.717303,49.730414
02284,02,Erloy,3.832041881720431,49.91455308602151,93,02260,3.822082,49.909897,3.858394,49.920354
02286,02,Esquéhéries,3.7551897827050986,49.9863591818182,451,02170,3.715596,49.959243,3.801919,50.000272
02287,02,Essigny-le-Grand,3.2767913455497415,49.77676564921465,573,02690,3.259489,49.768924,3.284173,49.783409
02288,02,Essigny-le-Petit,3.3672405489130437,49.89920022282607,184,02100,3.356662,49.896321,3.374973,49.903202
02289,02,Essises,3.417736400862067,48.964229431034475,232,02570,3.396141,48.948044,3.437506,48.985892
02290,02,Essômes-sur-Marne,3.360461479181883,49.03157298027752,1369,02400,3.310528,49.006406,3.380807,49.068359
02291,02,Estrées,3.2875510952380966,49.967906761904736,189,02420,3.277762,49.96168,3.297983,49.97276
02292,02,Étampes-sur-Marne,3.4157838523364465,49.03396400747664,535,02400,3.403715,49.026221,3.423537,49.038677
02293,02,Étaves-et-Bocquiaux,3.450847915441176,49.93503450367649,272,02110,3.42956,49.921566,3.479209,49.946962
02294,02,Étouvelles,3.5813575775862065,49.521673508620694,116,02000,3.574557,49.519021,3.593372,49.525476
02295,02,Étréaupont,3.922210344405592,49.90001867832169,572,02580,3.887534,49.871884,3.987871,49.929355
02296,02,Étreillers,3.1616949890909045,49.82833038181816,550,02590,3.153295,49.817129,3.170871,49.834012
02297,02,Étrépilly,3.340098550724639,49.083836898550736,69,02400,3.335184,49.077891,3.363092,49.085864
02298,02,Étreux,3.6643231304964528,49.99568183404251,705,02510,3.645724,49.984428,3.689526,50.006852
02299,02,Évergnicourt,4.042263328571429,49.44435725,280,02190,4.032378,49.436357,4.049518,49.449316
02302,02,Faverolles,3.176538544502617,49.2240007696335,191,02600,3.158868,49.202315,3.206315,49.234865
02303,02,Fayet,3.252322573065901,49.86737311747852,349,02100,3.242753,49.857914,3.261967,49.871648
02304,02,La Fère,3.368129417525774,49.66168510515464,970,02800,3.349836,49.656814,3.388424,49.670981
02305,02,Fère-en-Tardenois,3.512799578754575,49.19834993846159,1365,02130,3.491027,49.148003,3.535772,49.23106
02306,02,La Ferté-Chevresis,3.5548567923976604,49.736358745614034,342,02270,3.523307,49.722431,3.565972,49.772109
02307,02,La Ferté-Milon,3.1284651060948074,49.17812876297969,886,02460,3.115267,49.144284,3.160811,49.195257
02308,02,Fesmy-le-Sart,3.6987867517241386,50.04899445517242,290,02450,3.660433,50.035484,3.731908,50.066699
02309,02,Festieux,3.755833286585366,49.522865222560995,328,02840,3.747433,49.518803,3.76274,49.539025
02310,02,Fieulaine,3.449182811594204,49.89892888405798,138,02110,3.440493,49.890448,3.46273,49.91296
02312,02,La Flamengrie,3.924144561643833,50.000735416095864,584,02260,3.872943,49.978795,3.970177,50.026934
02313,02,Flavigny-le-Grand-et-Beaurain,3.6699351187214617,49.888643360730576,219,02120,3.655716,49.880715,3.682999,49.907344
02315,02,Flavy-le-Martel,3.192011074218753,49.71088858593751,768,02520,3.181535,49.686064,3.205233,49.719434
02316,02,Fleury,3.157206707317072,49.25872471951221,82,02600,3.153217,49.25525,3.164349,49.277252
02317,02,Fluquières,3.1540346181818184,49.80160647272728,110,02590,3.14472,49.79181,3.164209,49.805012
02318,02,Folembray,3.2881407801204796,49.54130748493979,664,02670,3.274841,49.535048,3.303061,49.553309
02319,02,Fonsomme,3.398925845132744,49.90161764159291,226,02110,3.375249,49.897172,3.406106,49.907076
02320,02,Fontaine-lès-Clercs,3.2215285256410247,49.80706075000001,156,02680,3.19828,49.799562,3.230955,49.819849
02321,02,Fontaine-lès-Vervins,3.8975581824953442,49.84527246368712,537,02140,3.862524,49.826404,3.955165,49.859442
02322,02,Fontaine-Notre-Dame,3.430939430167597,49.88458860335195,179,02110,3.42566,49.878181,3.439842,49.889667
02323,02,Fontaine-Uterte,3.3699001594202906,49.92133402898549,69,02110,3.365515,49.917749,3.3737,49.926391
02324,02,Fontenelle,3.855269290780139,50.02756908510638,141,02170,3.812265,50.018597,3.885708,50.039989
02326,02,Fontenoy,3.190727697580645,49.407192959677396,248,02290,3.165784,49.398779,3.224248,49.421053
02327,02,Foreste,3.098221439560439,49.80507276923076,91,02590,3.094722,49.797581,3.100667,49.810439
02328,02,Fossoy,3.481414324427481,49.04807622900765,262,02650,3.470216,49.0417,3.498171,49.055416
02329,02,Fourdrain,3.468414659663867,49.61356622689079,238,02870,3.456014,49.606258,3.480157,49.63109
02330,02,Francilly-Selency,3.224500102127659,49.8530091489362,235,02760,3.220489,49.839353,3.23328,49.864428
02331,02,Franqueville,3.809259445945945,49.809781770270256,74,02140,3.806137,49.805616,3.81327,49.812361
02332,02,Fresnes-en-Tardenois,3.553118023622047,49.14560635433071,127,02130,3.534946,49.125761,3.557571,49.150048
02333,02,Fresnes-sous-Coucy,3.3698650740740748,49.5547824074074,81,02380,3.348047,49.553106,3.374377,49.561977
02334,02,Fresnoy-le-Grand,3.4179364671814643,49.94844248030882,1295,02230,3.402694,49.939549,3.432493,49.9557
02335,02,Fressancourt,3.4262146800000015,49.63203020000001,125,02800,3.421362,49.628627,3.431593,49.63497
02336,02,Frières-Faillouël,3.230660688741721,49.6872235033113,453,02700,3.208332,49.65974,3.255731,49.695301
02337,02,Froidestrées,3.9051126893203882,49.94222424271844,103,02260,3.897013,49.926007,3.920883,49.95819
02338,02,Froidmont-Cohartille,3.704271006993006,49.68359579020977,143,02270,3.692695,49.677347,3.737663,49.692856
02339,02,Gandelu,3.18463349371069,49.091418635220144,318,02810,3.160715,49.05654,3.193628,49.097353
02340,02,Gauchy,3.281756320613853,49.82564601576115,2411,02430,3.262654,49.815857,3.3029,49.835074
02341,02,Gercy,3.865771162962962,49.816824785185176,135,02140,3.855228,49.81047,3.877024,49.828442
02342,02,Gergny,3.931874725,49.919834775,80,02260,3.923783,49.91174,3.936523,49.947597
02343,02,Germaine,3.1152500975609754,49.81152473170732,41,02590,3.111817,49.810564,3.11845,49.812427
02345,02,Gibercourt,3.2838988999999996,49.736581250000015,20,02440,3.28076,49.734088,3.28596,49.737515
02346,02,Gizy,3.7755059589632833,49.60116529805611,463,02350,3.767925,49.59739,3.797235,49.609731
02347,02,Gland,3.4619014959677408,49.04801997580643,248,02400,3.446844,49.045764,3.470738,49.06182
02349,02,Goudelancourt-lès-Berrieux,3.8478527894736847,49.496856140350886,57,02820,3.842309,49.495602,3.856164,49.500417
02350,02,Goudelancourt-lès-Pierrepont,3.8528833472222215,49.66852926388891,72,02350,3.843476,49.665031,3.855248,49.676928
02351,02,Goussancourt,3.6691126800000013,49.167079599999994,75,02130,3.665024,49.16459,3.674041,49.169972
02352,02,Gouy,3.253459167224082,50.00133751839466,299,02420,3.24228,49.986942,3.292463,50.01136
02353,02,Grandlup-et-Fay,3.7373231741935498,49.65812783225805,155,02350,3.71185,49.640319,3.759394,49.670893
02354,02,Grandrieux,4.183817122807019,49.731737789473684,57,02360,4.173207,49.722893,4.203976,49.738095
02355,02,Gricourt,3.2430634514767944,49.88797583122362,474,02100,3.221053,49.879487,3.26436,49.89415
02356,02,Grisolles,3.359290477064221,49.14050613761466,109,02210,3.355357,49.123653,3.378521,49.147127
02357,02,Gronard,3.881970051282052,49.792890948717954,39,02140,3.846163,49.787579,3.894025,49.801271
02358,02,Grougis,3.530112811403511,49.946283692982455,228,02110,3.511528,49.937372,3.548261,49.96363
02359,02,Grugies,3.266429862989326,49.81410061209967,562,02680,3.261322,49.808295,3.270447,49.818716
02360,02,Villeneuve-sur-Aisne,3.9747066113602414,49.434545451419986,1338,02190,3.948182,49.417918,4.012491,49.443461
02361,02,Guise,3.6283488156926764,49.90143695790762,2447,02120,3.602506,49.887897,3.653299,49.911824
02362,02,Guivry,3.121149082706767,49.64719778195488,133,02300,3.107608,49.64246,3.131064,49.661271
02363,02,Guny,3.2671398897338384,49.516850996197704,263,02300,3.257066,49.505544,3.281412,49.527366
02364,02,Guyencourt,3.837391630252101,49.35741019327732,119,02160,3.831927,49.352605,3.840019,49.359527
02366,02,Hannapes,3.626678271356785,49.97069718592962,199,02510,3.616151,49.964141,3.644995,49.977485
02367,02,Happencourt,3.1866762499999997,49.77703490789474,76,02480,3.183329,49.773753,3.190141,49.779618
02368,02,Haramont,3.0612145401459867,49.27732751459856,274,02600,3.010531,49.271471,3.072189,49.300756
02369,02,Harcigny,3.9790224375000025,49.79657345833334,144,02140,3.969059,49.794673,3.987293,49.816527
02370,02,Hargicourt,3.1813404392857145,49.96219337857139,280,02420,3.16735,49.957965,3.204656,49.966749
02371,02,Harly,3.320206533646323,49.84252186541467,639,02100,3.314498,49.837057,3.346681,49.84599
02372,02,Hartennes-et-Taux,3.3525138157894743,49.27222077368421,190,02210,3.346941,49.264339,3.362277,49.288428
02373,02,Hary,3.9252668448275867,49.79439057758621,116,02140,3.892672,49.784841,3.938515,49.8195
02374,02,Lehaucourt,3.278518537190084,49.91888292286507,363,02420,3.27407,49.899303,3.285249,49.92369
02375,02,Hautevesnes,3.2334821807228904,49.10890678313254,83,02810,3.230293,49.094041,3.252737,49.113436
02376,02,Hauteville,3.521934772727273,49.87884495454546,88,02120,3.512019,49.873147,3.529997,49.90006
02377,02,Haution,3.825113362745096,49.87111480392157,102,02140,3.80526,49.863805,3.841702,49.879575
02378,02,La Hérie,4.047007039473683,49.88406469736841,76,02500,4.030712,49.873004,4.053167,49.889639
02379,02,Le Hérie-la-Viéville,3.6452845794392523,49.82235337383178,107,02120,3.641232,49.809108,3.663029,49.828243
02380,02,Hinacourt,3.29568532,49.74525512,25,02440,3.293076,49.743412,3.298489,49.746772
02381,02,Hirson,4.084245992942222,49.92141325959423,4534,02500,4.060856,49.906012,4.173419,49.97654
02382,02,Holnon,3.2128552466442963,49.858903530201296,596,02760,3.201059,49.847751,3.220879,49.86421
02383,02,Homblières,3.3653960424929217,49.84943024787542,706,02720,3.35445,49.844554,3.395314,49.873976
02384,02,Houry,3.8497425937500003,49.78262128125,32,02140,3.843872,49.781357,3.868207,49.785327
02385,02,Housset,3.707501593406593,49.79459857142858,91,02250,3.698748,49.787988,3.712466,49.804362
02386,02,Iron,3.6593550499999994,49.95595922857146,140,02510,3.641142,49.949028,3.664982,49.964447
02387,02,Itancourt,3.3453883945841416,49.80800279110252,517,02240,3.330455,49.801927,3.35343,49.81231
02388,02,Iviers,4.138866690476189,49.78391465873018,126,02360,4.11752,49.777866,4.156075,49.794478
02389,02,Jaulgonne,3.534456282555283,49.08869112285012,407,02850,3.526273,49.07873,3.543972,49.096395
02390,02,Jeancourt,3.147438858267715,49.92740999212599,127,02490,3.142891,49.923945,3.151777,49.930331
02391,02,Jeantes,4.068820467999998,49.81565874,250,02140,4.042777,49.801617,4.100671,49.839108
02392,02,Joncourt,3.303075245508983,49.95841497005988,167,02420,3.291586,49.952142,3.31963,49.972266
02393,02,Jouaignes,3.5353139634146338,49.29834147560976,82,02220,3.527899,49.290476,3.53792,49.305825
02395,02,Jumencourt,3.352930130841122,49.50865570093459,107,02380,3.341066,49.496262,3.360791,49.515597
02396,02,Jumigny,3.718115850000001,49.41082999999999,40,02160,3.7153,49.405711,3.735023,49.412005
02397,02,Jussy,3.232258802139035,49.72090950267383,561,02480,3.214638,49.707354,3.261026,49.735637
02398,02,Juvigny,3.3192345465838513,49.447927490683206,161,02880,3.299021,49.435796,3.343418,49.460225
02399,02,Juvincourt-et-Damary,3.8933660074626877,49.446008555970145,268,02190,3.874204,49.421334,3.921759,49.466011
02400,02,Laffaux,3.4269318701298705,49.44813899999998,77,02880,3.420221,49.445507,3.440226,49.451854
02401,02,Laigny,3.860180959016396,49.86166568852461,122,02140,3.847628,49.846633,3.883675,49.884705
02402,02,Lanchy,3.0738133333333337,49.826323291666675,24,02590,3.061272,49.820144,3.07674,49.828498
02403,02,Landifay-et-Bertaignemont,3.605113050314466,49.81713960377357,159,02120,3.592655,49.812623,3.610777,49.849956
02404,02,Landouzy-la-Cour,3.982963134615385,49.844344875000004,104,02140,3.960587,49.82861,4.014138,49.856514
02405,02,Landouzy-la-Ville,4.06046137037037,49.856384442129574,432,02140,4.016166,49.839779,4.088974,49.872616
02406,02,Landricourt,3.368999264705882,49.505340397058845,68,02380,3.365403,49.486006,3.380842,49.518015
02407,02,Laniscourt,3.5408166886792434,49.549193566037744,106,02000,3.525252,49.544672,3.548533,49.553711
02408,02,Laon,3.6237056303072164,49.56589713335635,8691,02000,3.573349,49.531575,3.659205,49.610666
02409,02,Lappion,3.96350680254777,49.60745864331208,157,02150,3.95944,49.600407,3.970212,49.611276
02410,02,Largny-sur-Automne,3.0397342992125997,49.259835614173234,127,02600,3.026454,49.252957,3.073629,49.270575
02411,02,Latilly,3.311141146788991,49.15575489908259,109,02210,3.297046,49.136998,3.322111,49.170623
02412,02,Launoy,3.401569122448979,49.26441336734694,49,02210,3.375065,49.262224,3.428487,49.274987
02413,02,Laval-en-Laonnois,3.5952548473282433,49.50210739694657,131,02860,3.572924,49.499301,3.59948,49.506668
02414,02,Lavaqueresse,3.710731836065575,49.94764857377049,122,02450,3.697737,49.939565,3.732021,49.953851
02415,02,Laversine,3.170206,49.35207577777778,81,02600,3.154945,49.347091,3.173317,49.356889
02416,02,Lemé,3.767083203252031,49.83943187804877,246,02140,3.751403,49.827141,3.786168,49.850928
02417,02,Lempire,3.1708553620689663,49.991802172413784,58,02420,3.158478,49.989411,3.175621,49.993693
02418,02,Lerzy,3.8784696722689063,49.94657174789915,119,02260,3.858581,49.930549,3.90292,49.96414
02419,02,Leschelle,3.781494362790698,49.962432465116294,215,02170,3.736688,49.949063,3.810155,49.982334
02420,02,Lesdins,3.3204303184079618,49.89658808706465,402,02100,3.292446,49.890734,3.331917,49.912643
02421,02,Lesges,3.507588577777779,49.306455577777776,45,02220,3.503323,49.304708,3.512217,49.307917
02422,02,Lesquielles-Saint-Germain,3.62205516564417,49.9285342903885,489,02120,3.608059,49.918827,3.651149,49.941515
02423,02,Leuilly-sous-Coucy,3.357910599999998,49.47805657666664,300,02380,3.3401,49.462302,3.376213,49.493558
02424,02,Leury,3.336750365384615,49.43204796153847,52,02880,3.335019,49.42954,3.339205,49.435302
02425,02,Leuze,4.162208834951456,49.85177509708734,103,02500,4.158453,49.846311,4.18506,49.870433
02426,02,Levergies,3.313265372693728,49.92770504428046,271,02420,3.306516,49.922439,3.326974,49.945204
02427,02,Lhuys,3.554978191780822,49.28047652054794,73,02220,3.551654,49.276717,3.56046,49.284044
02428,02,Licy-Clignon,3.273932127659574,49.10010465957446,47,02810,3.255008,49.098235,3.277319,49.103012
02429,02,Lierval,3.617157157894737,49.48303096491228,57,02860,3.612922,49.478099,3.621352,49.486335
02430,02,Liesse-Notre-Dame,3.8060343733133504,49.60923337331334,667,02350,3.797581,49.604139,3.823628,49.626753
02431,02,Liez,3.2934210436893205,49.68992252427189,206,02700,3.282931,49.680442,3.30902,49.696906
02432,02,Limé,3.547365752136754,49.32198652991451,117,02220,3.542996,49.319096,3.553827,49.323273
02433,02,Lislet,4.021590096551725,49.68619996551723,145,02340,4.011782,49.682727,4.029822,49.690629
02435,02,Logny-lès-Aubenton,4.212465658536585,49.82981224390246,41,02500,4.205574,49.812806,4.231623,49.850048
02438,02,Longpont,3.2173389950738907,49.277374827586215,203,02600,3.200925,49.270921,3.239198,49.298734
02439,02,Les Septvallons,3.671610844006565,49.356898082101836,609,02160,3.628294,49.325292,3.720309,49.387856
02440,02,Lor,4.048271871794872,49.530503371794886,78,02190,4.041067,49.517682,4.055391,49.532545
02441,02,Louâtre,3.2368834249999985,49.257872750000004,160,02600,3.219586,49.240203,3.261363,49.272137
02442,02,Loupeigne,3.532877060606061,49.24788721212122,66,02130,3.522494,49.239848,3.537731,49.254639
02443,02,Lucy-le-Bocage,3.279178204081633,49.056529765306124,98,02400,3.265256,49.044093,3.288684,49.059139
02444,02,Lugny,3.8084182028985487,49.78023944927536,69,02140,3.800194,49.771338,3.813516,49.783362
02445,02,Luzoir,3.96061130612245,49.926108319727916,147,02500,3.940431,49.912674,3.98321,49.94468
02446,02,Ly-Fontaine,3.3078296808510643,49.73455921276596,47,02440,3.304136,49.73289,3.311176,49.73585
02447,02,Maast-et-Violaine,3.449930027777777,49.28839314814814,108,02220,3.445076,49.282065,3.456783,49.291982
02448,02,Mâchecourt,3.8401971692307675,49.65416850769232,65,02350,3.825133,49.644509,3.843521,49.656019
02449,02,Macogny,3.223747090909091,49.16099654545453,33,02470,3.202941,49.146652,3.233657,49.167403
02450,02,Macquigny,3.554439419811321,49.88368371226412,212,02120,3.543216,49.867073,3.588184,49.891428
02451,02,Magny-la-Fosse,3.2742466212121215,49.9335179090909,66,02420,3.269367,49.931882,3.277417,49.93536
02452,02,Maissemy,3.185609685039372,49.89510348031495,127,02490,3.17576,49.889992,3.191273,49.902626
02453,02,Maizy,3.7274349449152564,49.3771031567797,236,02160,3.683883,49.371498,3.743495,49.382424
02454,02,La Malmaison,3.986388896713616,49.513843732394385,213,02190,3.974039,49.501568,4.031613,49.525579
02455,02,Malzy,3.7308209603174602,49.91385729365077,126,02120,3.710224,49.905517,3.746178,49.938998
02456,02,Manicamp,3.169541560439559,49.57010878571428,182,02300,3.161698,49.546192,3.203415,49.574928
02457,02,Marchais,3.817327761682244,49.58351553738318,214,02350,3.814654,49.572658,3.840111,49.594799
02458,02,Dhuys et Morin-en-Brie,3.4984227690802365,48.90098000391387,511,"02330,02540",3.437399,48.843576,3.55806,48.939234
02459,02,Marcy,3.403453487804879,49.84995262195122,82,02720,3.396641,49.844364,3.415938,49.853145
02460,02,Marcy-sous-Marle,3.7365546302520993,49.73827309243696,119,02250,3.731841,49.734387,3.742999,49.741384
02461,02,Marest-Dampcourt,3.145348726775957,49.59580774863389,183,02300,3.13313,49.579046,3.160274,49.606371
02462,02,Mareuil-en-Dôle,3.5567185161290324,49.24067674999999,124,02130,3.548664,49.234911,3.575375,49.244801
02463,02,Marfontaine,3.770296931034483,49.803553034482746,58,02140,3.765542,49.79984,3.775445,49.805829
02464,02,Margival,3.40229005,49.434733238888846,180,02880,3.391165,49.424051,3.408571,49.441817
02465,02,Marigny-en-Orxois,3.221276410828027,49.058093585987244,314,02810,3.18107,49.041477,3.246863,49.068811
02466,02,Marizy-Sainte-Geneviève,3.203354347222222,49.18285080555556,72,02470,3.200559,49.180644,3.206603,49.184688
02467,02,Marizy-Saint-Mard,3.2261701379310344,49.181376689655174,29,02470,3.221635,49.178549,3.246,49.188479
02468,02,Marle,3.769877021838034,49.73985965969059,1099,02250,3.755392,49.724692,3.787044,49.763423
02469,02,Marly-Gomont,3.786514843450479,49.902182817891386,313,02120,3.75995,49.883926,3.810375,49.908206
02470,02,Martigny,4.128935810218979,49.86446144160588,274,02500,4.097675,49.845215,4.164186,49.888743
02471,02,Martigny-Courpierre,3.6847540909090895,49.49221023863634,88,02860,3.678771,49.482581,3.69447,49.501981
02472,02,Mauregny-en-Haye,3.7968060378787922,49.53135959090908,264,02820,3.77659,49.522164,3.814345,49.543336
02473,02,Mayot,3.384344510416666,49.70453199999999,96,02800,3.379934,49.701145,3.387766,49.709896
02474,02,Mennessis,3.2720437967032976,49.69330302197805,182,02700,3.263126,49.686646,3.282566,49.698558
02476,02,Mennevret,3.558227277008312,49.98297609418284,361,02630,3.542463,49.974177,3.570431,50.014544
02477,02,Mercin-et-Vaux,3.276243259179267,49.37659192440602,463,02200,3.252452,49.368291,3.301154,49.381712
02478,02,Merlieux-et-Fouquerolles,3.5028878417266194,49.51557000000004,139,02000,3.495324,49.503107,3.509968,49.519941
02480,02,Mesbrecourt-Richecourt,3.5452102261904757,49.70320982738097,168,02270,3.533594,49.700733,3.564629,49.712975
02481,02,Mesnil-Saint-Laurent,3.3558805486725674,49.82989457522125,226,02720,3.348855,49.826163,3.363732,49.841624
02482,02,Meurival,3.761066571428571,49.357943642857144,28,02160,3.759401,49.356182,3.764592,49.358705
02483,02,Mézières-sur-Oise,3.3959092234042565,49.781539354609926,282,02240,3.386093,49.778174,3.406796,49.786567
02484,02,Mézy-Moulins,3.5174568346456705,49.0616112480315,254,02650,3.500845,49.055939,3.523529,49.070086
02485,02,Missy-aux-Bois,3.2501061754385967,49.33691238596491,57,02200,3.246974,49.335153,3.253864,49.339158
02486,02,Missy-lès-Pierrepont,3.784533196428573,49.63369930357142,56,02350,3.775018,49.631657,3.787624,49.63925
02487,02,Missy-sur-Aisne,3.4366029368421054,49.38651412631579,285,02880,3.431656,49.377874,3.446427,49.389951
02488,02,Molain,3.5293690476190474,50.032549190476196,84,02110,3.506551,50.028924,3.539983,50.036543
02489,02,Molinchart,3.539298906832298,49.561990701863365,161,02000,3.528439,49.55751,3.545554,49.565893
02490,02,Monampteuil,3.570594955555555,49.475471822222204,90,02000,3.551195,49.470494,3.579228,49.481502
02491,02,Monceau-le-Neuf-et-Faucouzy,3.6185584444444467,49.77243787719297,171,02270,3.608184,49.764608,3.642027,49.794688
02492,02,Monceau-lès-Leups,3.4921107763713097,49.67018551898732,237,02270,3.463395,49.65254,3.500522,49.676253
02493,02,Monceau-le-Waast,3.714155008264462,49.61912993388432,121,02840,3.709884,49.617032,3.719923,49.621214
02494,02,Monceau-sur-Oise,3.6961155277777777,49.90213604166666,72,02120,3.689053,49.896002,3.701397,49.90514
02495,02,Mondrepuis,4.0521277425569195,49.962097166374804,571,02500,4.014253,49.949522,4.083407,49.983318
02496,02,Monnes,3.2219511481481478,49.14628268518518,54,02470,3.207644,49.139986,3.235434,49.149822
02497,02,Mons-en-Laonnois,3.5615112951388874,49.53879216493047,576,02000,3.538243,49.532162,3.581863,49.544231
02498,02,Montaigu,3.8343702869198304,49.54041843248947,474,02820,3.81612,49.527374,3.877719,49.573665
02499,02,Montbavin,3.5187979444444446,49.52713244444445,18,02000,3.509216,49.522358,3.535723,49.531923
02500,02,Montbrehain,3.3501915155555584,49.9668289666667,450,02110,3.338873,49.960578,3.367431,49.972998
02501,02,Montchâlons,3.726099957446808,49.51284825531914,47,02860,3.710327,49.504895,3.730227,49.522321
02502,02,Montcornet,4.01873338410596,49.693878915231736,755,02340,4.004488,49.689312,4.027527,49.702068
02503,02,Mont-d'Origny,3.4997487632183897,49.843213103448306,435,02390,3.493376,49.837974,3.547597,49.84818
02504,02,Montescourt-Lizerolles,3.25312932231405,49.736057920110284,726,02440,3.245711,49.730307,3.26358,49.744913
02505,02,Montfaucon,3.431782473404256,48.9461479574468,188,02540,3.400631,48.930548,3.459744,48.972212
02506,02,Montgobert,3.1494206949152543,49.306257457627126,118,02600,3.141018,49.275978,3.194997,49.312581
02507,02,Montgru-Saint-Hilaire,3.324212052631579,49.179990789473685,19,02210,3.318614,49.170405,3.329739,49.189612
02508,02,Monthenault,3.6641473333333354,49.48721829629629,81,02860,3.638453,49.484054,3.668184,49.492368
02509,02,Monthiers,3.298654130952381,49.10278663095238,84,02400,3.28449,49.099595,3.304069,49.111641
02510,02,Monthurel,3.5472567654320977,49.02189603703704,81,02330,3.538132,49.016539,3.550609,49.024592
02511,02,Montigny-en-Arrouaise,3.477528980392155,49.905656699346416,153,02110,3.458426,49.901187,3.490208,49.912693
02512,02,Montigny-l'Allier,3.0955286327683607,49.11275753672315,177,02810,3.082886,49.109672,3.1056,49.115549
02513,02,Montigny-le-Franc,3.906890876288661,49.68889050515464,97,02250,3.901938,49.687632,3.912751,49.689587
02514,02,Montigny-Lengrain,3.098812591259638,49.381581254498755,389,02290,3.082628,49.365297,3.114836,49.400021
02515,02,Montigny-lès-Condé,3.5698721333333334,48.982482266666665,45,02330,3.552616,48.972442,3.581988,48.986704
02516,02,Montigny-sous-Marle,3.7938433809523815,49.7466305,42,02250,3.789045,49.736831,3.808804,49.749272
02517,02,Montigny-sur-Crécy,3.583641041176472,49.71531464705881,170,02270,3.563476,49.701782,3.589512,49.718766
02518,02,Montlevon,3.528146580188681,48.96679516509436,212,02330,3.479918,48.943813,3.553457,48.986523
02519,02,Montloué,4.071706688679244,49.67394738679244,106,02340,4.064437,49.669561,4.079278,49.676794
02520,02,Mont-Notre-Dame,3.5807328915343852,49.29382521164023,378,02220,3.563888,49.268172,3.588965,49.302117
02521,02,Montreuil-aux-Lions,3.19236248091603,49.02170530839693,655,02310,3.174149,49.005805,3.203605,49.033266
02522,02,Mont-Saint-Jean,4.207820177777776,49.789325311111114,45,02360,4.193761,49.786935,4.214433,49.795287
02523,02,Mont-Saint-Martin,3.6385114062500006,49.28162437500001,32,02220,3.637053,49.271799,3.640707,49.284164
02524,02,Mont-Saint-Père,3.487999768115939,49.07405645797098,345,02400,3.478864,49.06515,3.500307,49.083438
02525,02,Morcourt,3.3227947035830585,49.87560179478825,307,02100,3.311159,49.864091,3.332494,49.881415
02526,02,Morgny-en-Thiérache,4.07568654385965,49.759477859649124,57,02360,4.070532,49.756829,4.079858,49.761376
02527,02,Morsain,3.1857906851063817,49.455975097872326,235,02290,3.16508,49.448988,3.206401,49.470003
02528,02,Mortefontaine,3.079195611842104,49.33454011842101,152,02600,3.049795,49.322528,3.113179,49.347603
02529,02,Mortiers,3.6696424242424253,49.68751436363637,99,02270,3.664964,49.685021,3.682137,49.691978
02530,02,Moulins,3.685312479166667,49.42069337500001,48,02160,3.680521,49.416912,3.687462,49.422715
02531,02,Moussy-Verneuil,3.633128079545455,49.41483615909092,88,02160,3.619225,49.398279,3.646539,49.420153
02532,02,Moÿ-de-l'Aisne,3.3614282495479193,49.751471725135595,553,02610,3.336776,49.744365,3.368552,49.760183
02533,02,Muret-et-Crouttes,3.422135142857144,49.28148562337662,77,02210,3.412962,49.275167,3.434404,49.293333
02534,02,Muscourt,3.7467142608695654,49.360522913043475,23,02160,3.743944,49.355547,3.748674,49.365717
02535,02,Nampcelles-la-Cour,4.002163784810127,49.77888953164556,79,02140,3.97656,49.762328,4.008892,49.785814
02536,02,Nampteuil-sous-Muret,3.4283771875,49.301825958333325,48,02200,3.42037,49.298487,3.438808,49.310871
02537,02,Nanteuil-la-Fosse,3.452928840909091,49.43376685227272,88,02880,3.437688,49.41772,3.467426,49.448209
02538,02,Nanteuil-Notre-Dame,3.4094705957446814,49.191696765957445,47,02210,3.40444,49.189935,3.411921,49.19329
02539,02,Nauroy,3.255058721126759,49.95284261126758,355,02420,3.246465,49.945396,3.268089,49.959808
02540,02,Nesles-la-Montagne,3.423009621832357,49.01870987329438,513,02400,3.40857,48.980153,3.467576,49.026776
02541,02,Neufchâtel-sur-Aisne,4.03315184375,49.43161034027778,288,02190,4.00987,49.427986,4.043611,49.453185
02542,02,Neuflieux,3.1611044186046517,49.61947518604652,43,02300,3.158655,49.617416,3.164255,49.622992
02543,02,Neuilly-Saint-Front,3.2637206782786823,49.16873151024597,976,02470,3.246573,49.138227,3.281358,49.190567
02544,02,Neuve-Maison,4.0325290465753385,49.932786095890364,365,02500,4.023264,49.92451,4.050958,49.948592
02545,02,La Neuville-Bosmont,3.838492575,49.71474105,80,02250,3.820518,49.710893,3.841499,49.73197
02546,02,La Neuville-en-Beine,3.1543128571428585,49.67448343877552,98,02300,3.139554,49.668871,3.178869,49.678722
02547,02,La Neuville-Housset,3.7298028536585366,49.793122951219516,41,02250,3.725747,49.790595,3.736215,49.798177
02548,02,La Neuville-lès-Dorengt,3.687111707317072,49.98601573658539,205,02450,3.666514,49.97466,3.723702,50.005415
02549,02,Neuville-Saint-Amand,3.3201676431924914,49.82541159389668,426,02100,3.300933,49.815125,3.367216,49.832029
02550,02,Neuville-sur-Ailette,3.7003958805970147,49.46645408955225,67,02860,3.693583,49.463131,3.711418,49.471327
02551,02,Neuville-sur-Margival,3.4019982058823532,49.45327944117647,68,02880,3.396908,49.451146,3.41644,49.457452
02552,02,Neuvillette,3.4829435531914883,49.854042670212756,94,02390,3.47947,49.84678,3.486661,49.8591
02553,02,Nizy-le-Comte,4.0511184910179665,49.57023894011976,167,02150,4.012348,49.545447,4.060614,49.597667
02554,02,Nogentel,3.4034444367816077,49.0175593697318,522,02400,3.396108,49.001027,3.415771,49.034631
02555,02,Nogent-l'Artaud,3.327129771457083,48.96095067864275,1002,02310,3.305159,48.924459,3.364963,48.969435
02556,02,Noircourt,4.092003235294118,49.66691670588236,51,02340,4.086205,49.663954,4.095583,49.669641
02557,02,Noroy-sur-Ourcq,3.211382903614457,49.20503942168674,83,02600,3.206848,49.203378,3.217596,49.212416
02558,02,Le Nouvion-en-Thiérache,3.784817074921137,50.017730616719184,1268,02170,3.739336,49.999206,3.839255,50.045917
02559,02,Nouvion-et-Catillon,3.484194468164793,49.70073390262177,267,02270,3.467245,49.689232,3.523049,49.717889
02560,02,Nouvion-le-Comte,3.4625569745222915,49.69839406369426,157,02800,3.454682,49.695267,3.470409,49.702849
02561,02,Nouvion-le-Vineux,3.611017545454546,49.502898415584426,77,02860,3.604488,49.497852,3.61642,49.511262
02562,02,Nouvron-Vingré,3.191646372727272,49.428437718181804,110,02290,3.164356,49.425532,3.20466,49.445878
02563,02,Noyales,3.553997093023255,49.89857947674418,86,02120,3.545187,49.895791,3.561015,49.905594
02564,02,Bernoy-le-Château,3.3241461849148433,49.33164166423358,411,02200,3.291301,49.30458,3.342288,49.342374
02565,02,Œuilly,3.6886237764705885,49.39008320588238,170,02160,3.683335,49.387231,3.69489,49.393308
02566,02,Ognes,3.1931289234875457,49.61132618505337,562,02300,3.183746,49.604695,3.202525,49.635189
02567,02,Ohis,4.009338736842106,49.92472207894737,152,02500,3.992374,49.906381,4.023593,49.932576
02568,02,Oigny-en-Valois,3.1352897768595063,49.21890414876033,121,02600,3.103173,49.209336,3.142286,49.231019
02569,02,Oisy,3.665056839662445,50.021013632911405,237,02450,3.629211,50.013506,3.687172,50.038242
02570,02,Ollezy,3.1438942023809537,49.733864309523824,84,02480,3.140399,49.731687,3.147917,49.736807
02571,02,Omissy,3.3121774554140115,49.87825592675159,314,02100,3.301294,49.862874,3.316934,49.883308
02572,02,Orainville,4.020985244635193,49.38106352789697,233,02190,4.013873,49.376726,4.036721,49.38374
02573,02,Orgeval,3.7040906216216225,49.50766335135135,37,02860,3.701521,49.506282,3.707743,49.509705
02574,02,Origny-en-Thiérache,4.014729955936353,49.88853578335373,817,02550,3.983542,49.862775,4.037703,49.90439
02575,02,Origny-Sainte-Benoite,3.492305923522596,49.83784123522594,863,02390,3.477449,49.821045,3.553138,49.846031
02576,02,Osly-Courtil,3.233108895424836,49.39943611764704,153,02290,3.219255,49.391143,3.251203,49.412748
02577,02,Ostel,3.5686797547169817,49.429085452830186,53,02370,3.550151,49.421044,3.572632,49.434314
02578,02,Oulches-la-Vallée-Foulon,3.7453134509803916,49.42925578431372,51,02160,3.731709,49.426585,3.749337,49.441989
02579,02,Oulchy-la-Ville,3.343819746478873,49.2081790140845,71,02210,3.327956,49.195183,3.352572,49.214585
02580,02,Oulchy-le-Château,3.370139556122445,49.204824165816326,392,02210,3.354054,49.190178,3.417399,49.210691
02581,02,Paars,3.60093432,49.327670639999994,150,02220,3.5912,49.322214,3.604471,49.330743
